latitude,longitude,time,date,number of sats,gps speed (kn),gps true heading,gps magnetic variation,hdop,c magnetic heading,c true heading,pitch angle,roll angle,c inside temp (c),dfs depth (m),dtb height (m),total water column (m),batt percent,power watts,watt-hours,batt volts,batt ampers,batt state,time to empty,current step,dist to next (m),next speed (kn),vehicle speed (kn),motor speed cmd,next heading,next long,next lat,next depth (m),depth goal (m),vehicle state,error state,distance to track (m),fin pitch r,fin pitch l,pitch goal,fin yaw t,fin yaw b,yaw goal,fin roll,dvl-depth (m),dvl -altitude (m),dvl -water column (m),dvl-fixtype,dvl-fixquality,dvl-temperature,conductivity (mmhos/cm),temperature (c),salinity (ppt),sound speed (m/s),date m/d/y,time hh:mm:ss,temp c,spcond ms/cm,sal ppt,depth feet,ph,ph mv,turbid+ ntu,chl ug/l,bga-pc cells/ml,odosat %,odo mg/l,battery volts,rosem command type,timestamp,temperature,salinity,odo
25.91274345,-80.13777946,17:56.4,11/16/22,8,1.641,162.23,-7.23198201,1.31,183.0,172.6,3.42,1.76,32.6,0.0,3.38,3.39,98,48,525.2,16.4,-2.9,D,735.4,1,13.94,2,1.68,183,162.93,-80.13773856,25.9126236,0,0,1,N,3.264627,78,78,11,124,124,171.7557,0,9999.99,3.42,3.547,2,9,29.6,0,29.70000076,47.43,1557.85882,11/16/22,11:50:10,27.76,69.47,47.43,1.186,8.28,-76.4,-2.4,-1.2,-1458,96.2,5.81,13.2,,2022-11-16 17:56:24+00:00,27.76,47.43,5.81
25.91273439,-80.13777892,17:57.4,11/16/22,7,1.514,166.08,-7.23198201,1.3,184.3,173.91,1.79,3.63,32.6,0.0,3.35,3.35,98,48,525.2,16.4,-2.9,D,735.4,1,12.964,2,1.79,184,161.86,-80.13773856,25.9126236,0,0,1,N,2.804988,68,68,11,107,107,168.8795,0,9999.99,3.38,3.507,2,9,29.6,0,29.60000038,47.63,1557.86872,11/16/22,11:50:12,27.74,69.73,47.63,1.209,8.28,-76.2,-2.3,-7.4,-2002,96.0,5.79,13.1,,2022-11-16 17:57:24+00:00,27.74,47.63,5.79
25.91272678,-80.13777822,17:58.4,11/16/22,7,1.566,170.84,-7.23198201,1.3,182.1,171.7,1.61,5.88,32.6,0.0,3.33,3.33,98,48,525.2,16.4,-2.9,D,735.4,1,12.14,2,1.88,184,160.93,-80.13773856,25.9126236,0,0,1,N,2.443113,67,67,11,105,105,166.5396,0,9999.99,3.34,3.467,2,9,29.6,0,29.60000038,47.63,1557.86872,11/16/22,11:50:12,27.74,69.73,47.63,1.209,8.28,-76.2,-2.3,-7.4,-2002,96.0,5.79,13.1,,2022-11-16 17:58:24+00:00,27.74,47.63,5.79
25.91271768,-80.1377787,17:59.4,11/16/22,7,1.989,178.24,-7.23198201,1.3,179.5,169.09,2.45,6.16,32.6,0.0,3.29,3.29,98,50,525.1,16.4,-3.0,D,708.5,1,11.205,2,1.94,184,159.0,-80.13773856,25.9126236,0,0,1,N,1.891071,72,72,11,102,102,162.8569,0,9999.99,3.3,3.427,2,9,29.6,0,29.60000038,47.5,1557.73224,11/16/22,11:50:13,27.75,69.56,47.5,1.236,8.28,-76.4,-3.1,-1.5,-2987,95.8,5.78,13.2,,2022-11-16 17:59:24+00:00,27.75,47.5,5.78
25.91270799,-80.13777912,18:00.4,11/16/22,7,1.972,179.5,-7.23198201,1.3,177.4,166.99,2.18,6.54,32.7,0.0,3.25,3.25,98,50,525.1,16.4,-3.0,D,708.5,1,10.223,2,1.99,184,156.62,-80.13773856,25.9126236,0,0,1,N,1.294925,70,70,11,94,94,158.7514,0,9999.99,3.26,3.387,2,9,29.6,0,29.60000038,47.7,1557.94207,11/16/22,11:50:15,27.77,69.82,47.7,1.24,8.29,-76.5,-2.1,-3.2,-3763,95.5,5.75,13.2,,2022-11-16 18:00:24+00:00,27.77,47.7,5.75
25.91269738,-80.13778,18:01.4,11/16/22,8,1.843,179.44,-7.23198201,1.3,175.2,164.8,2.34,5.43,32.7,0.0,3.19,3.19,98,50,525.1,16.4,-3.0,D,708.5,1,9.192,2,2.01,184,153.2,-80.13773856,25.9126236,0,0,1,N,0.6159858,71,71,11,84,84,153.9603,0,9999.99,3.2,3.327,2,9,29.5,0,29.60000038,47.7,1557.94207,11/16/22,11:50:15,27.77,69.82,47.7,1.24,8.29,-76.5,-2.1,-3.2,-3763,95.5,5.75,13.2,,2022-11-16 18:01:24+00:00,27.77,47.7,5.75
25.91266684,-80.13777723,18:04.4,11/16/22,8,2.249,173.16,-7.23198201,1.4,163.8,153.61,2.06,7.15,32.6,0.0,3.07,3.07,98,51,525.1,16.4,-3.1,D,691.3,1,6.171,2,2.17,184,141.19,-80.13773856,25.9126236,0,0,1,N,0.8918105,67,67,11,84,84,143.1968,0,9999.99,3.08,3.207,2,9,29.5,0,29.5,47.12,1557.13324,11/16/22,11:50:18,27.74,69.07,47.12,1.225,8.29,-76.7,-3.1,-5.6,-285,95.8,5.79,13.2,,2022-11-16 18:04:24+00:00,27.74,47.12,5.79
25.91265574,-80.13777479,18:05.4,11/16/22,7,1.91,169.63,-7.23198201,1.4,159.8,149.73,2.21,7.54,32.6,0.0,3.05,3.05,98,51,525.1,16.4,-3.1,D,691.3,2,21.989,2,2.08,184,139.9,-80.13763318,25.91250447,0,0,1,N,0.5936634,70,70,11,84,84,138.9486,0,9999.99,3.07,3.197,2,9,29.4,0,29.5,47.24,1557.25919,11/16/22,11:50:19,27.74,69.22,47.24,1.231,8.29,-76.5,-3.5,-2.0,-1958,95.9,5.79,13.2,,2022-11-16 18:05:24+00:00,27.74,47.24,5.79
25.91264763,-80.13777235,18:06.4,11/16/22,7,1.918,166.48,-7.23198201,1.4,155.2,145.31,1.82,6.21,32.7,0.0,3.11,3.11,98,51,525.1,16.4,-3.1,D,691.3,2,21.146,2,2.01,184,138.83,-80.13763318,25.91250447,0,0,1,N,0.9751608,68,68,11,94,94,137.0254,0,9999.99,3.13,3.257,2,9,29.4,0,29.39999962,47.17,1556.98474,11/16/22,11:50:21,27.79,69.14,47.17,1.209,8.28,-76.3,-2.5,-4.9,-333,95.7,5.78,13.3,,2022-11-16 18:06:24+00:00,27.79,47.17,5.78
25.91263999,-80.137769,18:07.4,11/16/22,7,2.018,163.66,-7.23198201,1.41,151.2,141.49,1.1,7.72,32.7,0.0,3.12,3.12,98,51,525.1,16.4,-3.1,D,691.3,2,20.288,2,2.02,184,137.97,-80.13763318,25.91250447,0,0,1,N,1.247772,64,64,11,101,101,135.3372,0,9999.99,3.13,3.257,2,9,29.4,0,29.39999962,47.17,1556.98474,11/16/22,11:50:21,27.79,69.14,47.17,1.209,8.28,-76.3,-2.5,-4.9,-333,95.7,5.78,13.3,,2022-11-16 18:07:24+00:00,27.79,47.17,5.78
25.91263146,-80.13776435,18:08.4,11/16/22,8,2.167,160.58,-7.23198201,1.41,147.2,137.7,1.95,8.7,32.6,0.0,3.13,3.13,98,59,525.1,16.4,-3.6,D,599.7,2,19.275,2,1.91,184,137.11,-80.13763318,25.91250447,0,0,1,N,1.477221,67,67,11,108,108,133.4843,0,9999.99,3.15,3.277,2,9,29.4,0,29.39999962,46.9,1556.70115,11/16/22,11:50:23,27.8,68.79,46.9,1.215,8.29,-76.5,-2.1,-4.7,-1981,95.7,5.79,13.2,,2022-11-16 18:08:24+00:00,27.8,46.9,5.79
25.91262354,-80.13775974,18:09.4,11/16/22,8,1.997,157.34,-7.23198201,1.41,144.6,135.25,1.74,7.81,32.7,0.0,3.14,3.14,98,59,525.1,16.4,-3.6,D,599.7,2,18.316,2,1.94,184,136.29,-80.13763318,25.91250447,0,0,1,N,1.671768,65,65,11,108,108,131.518,0,9999.99,3.15,3.277,2,9,29.4,0,29.39999962,46.9,1556.70115,11/16/22,11:50:23,27.8,68.79,46.9,1.215,8.29,-76.5,-2.1,-4.7,-1981,95.7,5.79,13.2,,2022-11-16 18:09:24+00:00,27.8,46.9,5.79
25.91261583,-80.1377539,18:10.4,11/16/22,8,1.887,151.95,-7.23198201,1.41,142.0,132.8,1.79,7.99,32.7,0.0,3.16,3.17,98,59,525.1,16.4,-3.6,D,599.7,2,17.295,2,1.96,184,135.72,-80.13763318,25.91250447,0,0,1,N,1.758079,68,68,11,115,115,129.7053,0,9999.99,3.18,3.307,2,9,29.4,0,29.39999962,46.51,1556.29161,11/16/22,11:50:24,27.78,68.29,46.51,1.205,8.29,-76.7,-3.0,-4.9,-4382,95.8,5.81,13.1,,2022-11-16 18:10:24+00:00,27.78,46.51,5.81
25.91260867,-80.1377475,18:11.4,11/16/22,8,1.977,148.6,-7.23198201,1.0,139.5,130.46,1.37,7.53,32.6,0.0,3.22,3.22,98,58,525.0,16.4,-3.5,D,612.7,2,16.278,2,1.93,184,135.38,-80.13763318,25.91250447,0,0,1,N,1.755491,68,68,11,125,125,129.1166,0,9999.99,3.24,3.367,2,9,29.3,0,29.29999924,46.92,1556.52041,11/16/22,11:50:26,27.73,68.81,46.92,1.212,8.28,-76.3,-3.3,0.1,-1883,95.9,5.81,13.2,,2022-11-16 18:11:24+00:00,27.73,46.92,5.81
25.91260202,-80.13774125,18:12.4,11/16/22,8,2.011,146.92,-7.23198201,1.0,137.4,128.49,0.92,7.88,32.7,0.0,3.24,3.24,98,58,525.0,16.4,-3.5,D,612.7,2,15.313,2,1.94,184,135.1,-80.13763318,25.91250447,0,0,1,N,1.737495,63,63,11,130,130,129.2408,0,9999.99,3.25,3.377,2,9,29.3,0,29.29999924,46.92,1556.52041,11/16/22,11:50:26,27.73,68.81,46.92,1.212,8.28,-76.3,-3.3,0.1,-1883,95.9,5.81,13.2,,2022-11-16 18:12:24+00:00,27.73,46.92,5.81
25.91259467,-80.13773466,18:13.4,11/16/22,8,1.935,145.26,-7.23198201,1.0,137.7,128.77,0.85,7.36,32.6,0.0,3.27,3.27,98,58,525.0,16.4,-3.5,D,612.7,2,14.269,2,1.92,184,134.66,-80.13763318,25.91250447,0,0,1,N,1.725868,62,62,11,129,129,129.3187,0,9999.99,3.28,3.407,2,9,29.3,0,29.29999924,46.85,1556.44681,11/16/22,11:50:27,27.73,68.73,46.85,1.231,8.28,-76.3,-3.7,-7.6,-3062,96.0,5.82,13.2,,2022-11-16 18:13:24+00:00,27.73,46.85,5.82
25.91258771,-80.13772866,18:14.4,11/16/22,8,1.86,139.68,-7.23198201,1.0,136.6,127.75,1.14,6.74,32.6,0.0,3.3,3.3,98,58,525.0,16.4,-3.5,D,612.7,2,13.299,2,1.91,184,134.1,-80.13763318,25.91250447,0,0,1,N,1.736582,64,64,11,133,133,129.2453,0,9999.99,3.31,3.437,2,9,29.3,0,29.29999924,46.87,1556.46783,11/16/22,11:50:29,27.75,68.75,46.87,1.21,8.28,-76.4,-3.3,-6.9,-1304,96.2,5.82,13.2,,2022-11-16 18:14:24+00:00,27.75,46.87,5.82
25.91258122,-80.13772212,18:15.4,11/16/22,8,1.88,134.56,-7.23198201,1.0,135.7,126.91,1.59,7.02,32.6,0.0,3.33,3.33,98,58,525.0,16.3,-3.5,D,616.8,2,12.328,2,1.91,184,133.81,-80.13763318,25.91250447,0,0,1,N,1.675991,68,68,11,140,140,129.6603,0,9999.99,3.34,3.467,2,9,29.3,0,29.29999924,46.87,1556.46783,11/16/22,11:50:29,27.75,68.75,46.87,1.21,8.28,-76.4,-3.3,-6.9,-1304,96.2,5.82,13.2,,2022-11-16 18:15:24+00:00,27.75,46.87,5.82
25.91257457,-80.13771405,18:16.4,11/16/22,8,1.917,133.32,-7.23198201,1.0,135.5,126.72,1.68,7.07,32.6,0.0,3.23,3.23,98,58,525.0,16.3,-3.5,D,616.8,2,11.233,2,1.91,184,133.94,-80.13763318,25.91250447,0,0,1,N,1.509365,67,67,11,143,143,130.8083,0,9999.99,3.25,3.377,2,9,29.3,0,29.29999924,46.76,1556.35228,11/16/22,11:50:30,27.76,68.61,46.76,1.201,8.28,-76.4,-2.7,-3.7,-2118,96.1,5.82,13.3,,2022-11-16 18:16:24+00:00,27.76,46.76,5.82
25.91256858,-80.1377067,18:17.4,11/16/22,8,1.947,133.22,-7.23198201,1.0,136.3,127.47,1.72,6.71,32.6,0.0,3.26,3.26,98,58,525.0,16.3,-3.5,D,616.8,2,10.242,2,1.92,184,134.11,-80.13763318,25.91250447,0,0,1,N,1.349648,67,67,11,145,145,131.917,0,9999.99,3.28,3.407,2,9,29.3,0,29.29999924,46.09,1555.64826,11/16/22,11:50:32,27.76,67.75,46.09,1.212,8.28,-76.4,-2.3,-1.8,-4224,95.9,5.83,13.1,,2022-11-16 18:17:24+00:00,27.76,46.09,5.83
25.91256325,-80.1377001,18:18.4,11/16/22,8,1.879,130.43,-7.23198201,1.0,137.2,128.31,1.78,6.77,32.6,0.0,3.28,3.28,98,58,525.0,16.3,-3.5,D,614.0,2,9.355,2,1.9,184,134.32,-80.13763318,25.91250447,0,0,1,N,1.194879,67,67,11,146,146,132.9976,0,9999.99,3.3,3.427,2,9,29.3,0,29.29999924,46.09,1555.64826,11/16/22,11:50:32,27.76,67.75,46.09,1.212,8.28,-76.4,-2.3,-1.8,-4224,95.9,5.83,13.1,,2022-11-16 18:18:24+00:00,27.76,46.09,5.83
25.91255652,-80.13769263,18:19.4,11/16/22,8,1.871,128.32,-7.23198201,1.0,137.6,128.68,2.25,6.18,32.6,0.0,3.4,3.4,98,58,525.0,16.3,-3.5,D,614.0,2,8.299,2,1.9,184,134.23,-80.13763318,25.91250447,0,0,1,N,1.078032,68,68,11,148,148,133.8183,0,9999.99,3.41,3.537,2,9,29.2,0,29.29999924,46.24,1555.80601,11/16/22,11:50:33,27.75,67.95,46.24,1.191,8.29,-76.7,-3.6,-3.1,-4892,96.0,5.83,13.1,,2022-11-16 18:19:24+00:00,27.75,46.24,5.83
25.91254925,-80.13768574,18:20.4,11/16/22,8,1.9,129.84,-7.23198201,1.0,137.8,128.87,2.87,6.02,32.6,0.0,3.45,3.46,98,58,525.0,16.3,-3.5,D,614.0,2,7.241,2,1.9,184,133.45,-80.13763318,25.91250447,0,0,1,N,1.041595,72,72,11,149,149,134.0746,0,9999.99,3.47,3.597,2,9,29.2,0,29.20000076,46.19,1555.55064,11/16/22,11:50:34,27.73,67.88,46.19,1.191,8.29,-76.8,-4.0,-1.1,-1873,95.8,5.82,13.2,,2022-11-16 18:20:24+00:00,27.73,46.19,5.82
25.9125429,-80.13767897,18:21.4,11/16/22,8,1.966,133.64,-7.23198201,1.0,138.4,129.43,3.08,7.04,32.6,0.0,3.52,3.52,98,58,525.0,16.3,-3.5,D,614.0,2,6.264,2,1.89,184,133.02,-80.13763318,25.91250447,0,0,1,N,0.9462208,75,75,11,148,148,134.7477,0,9999.99,3.54,3.667,2,9,29.2,0,29.20000076,46.41,1555.78193,11/16/22,11:50:36,27.71,68.16,46.41,1.18,8.29,-76.5,-4.3,-2.3,-1825,95.6,5.81,13.0,,2022-11-16 18:21:24+00:00,27.71,46.41,5.81
25.9125354,-80.1376721,18:22.4,11/16/22,8,2.032,136.54,-7.23198201,1.0,141.3,132.14,2.24,4.88,32.6,0.0,3.44,3.45,98,58,524.9,16.3,-3.5,D,614.3,2,5.194,2,1.89,184,131.46,-80.13763318,25.91250447,0,0,1,N,0.9223194,70,70,11,138,138,134.9165,0,9999.99,3.47,3.597,2,9,29.2,0,29.20000076,46.41,1555.78193,11/16/22,11:50:36,27.71,68.16,46.41,1.18,8.29,-76.5,-4.3,-2.3,-1825,95.6,5.81,13.0,,2022-11-16 18:22:24+00:00,27.71,46.41,5.81
25.91252963,-80.13766473,18:23.4,11/16/22,8,1.86,133.01,-7.23198201,1.0,143.6,134.3,1.81,6.85,32.6,0.0,3.47,3.47,98,58,524.9,16.3,-3.5,D,614.3,3,24.349,2,1.89,184,151.23,-80.13754756,25.91233769,0,0,1,N,1.737399,68,68,11,179,179,147.3609,0,9999.99,3.49,3.617,2,9,29.2,0,29.20000076,46.36,1555.72939,11/16/22,11:50:37,27.7,68.09,46.36,1.187,8.29,-76.4,-2.5,-3.8,-1890,95.6,5.81,13.2,,2022-11-16 18:23:24+00:00,27.7,46.36,5.81
25.91252223,-80.13765833,18:24.4,11/16/22,8,1.908,132.78,-7.23198201,1.0,146.6,137.13,2.45,6.12,32.6,0.0,3.39,3.39,98,58,524.9,16.3,-3.5,D,613.7,3,23.32,2,1.88,184,151.64,-80.13754756,25.91233769,0,0,1,N,1.49571,72,72,11,170,170,147.7783,0,9999.99,3.41,3.537,2,9,29.2,0,29.20000076,46.26,1555.62413,11/16/22,11:50:39,27.71,67.97,46.26,1.19,8.29,-76.7,-4.0,-0.8,-2437,95.6,5.81,13.2,,2022-11-16 18:24:24+00:00,27.71,46.26,5.81
25.91251566,-80.13765199,18:25.4,11/16/22,8,1.914,136.72,-7.23198201,1.0,150.5,140.83,3.09,4.33,32.7,0.0,3.54,3.54,98,58,524.9,16.3,-3.5,D,613.7,3,22.377,2,1.85,184,152.17,-80.13754756,25.91233769,0,0,1,N,1.214845,76,76,11,158,158,148.5418,0,9999.99,3.56,3.687,2,9,29.2,0,29.20000076,46.26,1555.62413,11/16/22,11:50:39,27.71,67.97,46.26,1.19,8.29,-76.7,-4.0,-0.8,-2437,95.6,5.81,13.2,,2022-11-16 18:25:24+00:00,27.71,46.26,5.81
25.91249366,-80.13763858,18:28.4,11/16/22,8,1.82,146.1,-7.23198201,1.0,159.5,149.44,2.04,4.74,32.7,0.0,3.59,3.59,98,61,524.9,16.3,-3.7,D,583.8,3,19.587,2,1.89,185,152.31,-80.13754756,25.91233769,0,0,1,N,1.005229,69,69,11,121,121,148.0539,0,9999.99,3.61,3.737,2,9,29.2,0,29.20000076,46.41,1555.78231,11/16/22,11:50:42,27.76,68.17,46.41,1.192,8.29,-76.8,-3.7,-6.0,-703,95.5,5.8,13.3,,2022-11-16 18:28:24+00:00,27.76,46.41,5.8
25.91248605,-80.13763251,18:29.4,11/16/22,8,1.772,147.19,-7.23198201,1.3,158.9,148.86,1.87,6.68,32.7,0.0,3.59,3.59,98,61,524.9,16.3,-3.7,D,583.8,3,18.556,2,1.91,185,152.75,-80.13754756,25.91233769,0,0,1,N,0.8092706,68,68,11,129,129,149.4386,0,9999.99,3.61,3.737,2,9,29.1,0,29.20000076,46.16,1555.5188,11/16/22,11:50:43,27.76,67.85,46.16,1.206,8.29,-76.9,-3.4,-3.5,-3048,95.6,5.81,13.2,,2022-11-16 18:29:24+00:00,27.76,46.16,5.81
25.91247871,-80.13762776,18:30.4,11/16/22,7,1.847,149.78,-7.23198201,1.3,159.3,149.25,1.79,6.89,32.7,0.0,3.59,3.59,98,61,524.9,16.3,-3.7,D,583.8,3,17.613,2,1.95,185,152.91,-80.13754756,25.91233769,0,0,1,N,0.7248554,66,66,11,131,131,150.0371,0,9999.99,3.6,3.727,2,9,29.1,0,29.10000038,46.24,1555.39938,11/16/22,11:50:45,27.77,67.95,46.24,1.224,8.29,-76.7,-4.2,1.4,-2299,95.5,5.8,13.3,,2022-11-16 18:30:24+00:00,27.77,46.24,5.8
25.91247036,-80.13762399,18:31.4,11/16/22,8,1.754,151.73,-7.23198201,1.3,158.3,148.29,1.68,7.52,32.7,0.0,3.59,3.59,98,60,524.9,16.3,-3.7,D,587.8,3,16.615,2,2.0,185,152.61,-80.13754756,25.91233769,0,0,1,N,0.7716831,67,67,11,133,133,149.7047,0,9999.99,3.61,3.737,2,9,29.1,0,29.10000038,46.24,1555.39938,11/16/22,11:50:45,27.77,67.95,46.24,1.224,8.29,-76.7,-4.2,1.4,-2299,95.5,5.8,13.3,,2022-11-16 18:31:24+00:00,27.77,46.24,5.8
25.91246255,-80.13762117,18:32.4,11/16/22,8,1.702,151.99,-7.23198201,1.3,159.3,149.25,1.88,7.44,32.7,0.0,3.59,3.59,98,60,524.9,16.3,-3.7,D,587.8,3,15.716,2,1.99,185,152.07,-80.13754756,25.91233769,0,0,1,N,0.8738645,68,68,11,126,126,148.9806,0,9999.99,3.61,3.737,2,9,29.1,0,29.10000038,46.0,1555.14685,11/16/22,11:50:46,27.76,67.63,46.0,1.213,8.29,-76.6,-3.8,1.7,-1894,95.6,5.81,13.2,,2022-11-16 18:32:24+00:00,27.76,46.0,5.81
25.91236408,-80.13756917,18:44.6,11/16/22,7,1.987,154.4,-7.23198201,1.41,157.0,147.04,2.28,7.66,32.8,0.0,3.6,3.6,98,61,524.8,16.3,-3.7,D,583.7,4,23.265,2,1.98,185,146.91,-80.13744218,25.91218878,0,0,1,N,0.2519892,71,71,11,124,124,146.3452,0,9999.99,3.62,3.747,2,9,29.1,0,29.10000038,45.32,1554.43149,11/16/22,11:50:59,27.71,66.76,45.32,1.193,8.29,-77.0,-4.3,-4.0,-2840,96.3,5.88,13.1,,2022-11-16 18:44:36+00:00,27.71,45.32,5.88
25.9123577,-80.13756435,18:45.6,11/16/22,7,1.863,152.56,-7.23198201,1.41,156.7,146.75,2.02,7.19,32.8,0.0,3.6,3.6,98,60,524.7,16.3,-3.7,D,587.6,4,22.408,2,1.96,185,146.96,-80.13744218,25.91218878,0,0,1,N,0.2269504,72,72,11,127,127,146.3734,0,9999.99,3.62,3.747,2,9,29.0,0,29.0,45.33,1554.23723,11/16/22,11:51:00,27.7,66.78,45.33,1.196,8.29,-76.7,-3.7,-1.6,-354,96.5,5.9,13.2,,2022-11-16 18:45:36+00:00,27.7,45.33,5.9
25.91234825,-80.13755872,18:46.6,11/16/22,7,1.97,153.38,-7.23198201,1.41,156.9,146.94,2.29,6.77,32.7,0.0,3.57,3.57,98,60,524.7,16.3,-3.7,D,587.6,4,21.22,2,1.96,185,146.68,-80.13744218,25.91218878,0,0,1,N,0.3152072,71,71,11,122,122,145.7113,0,9999.99,3.59,3.717,2,9,29.0,0,29.0,45.33,1554.23723,11/16/22,11:51:00,27.7,66.78,45.33,1.196,8.29,-76.7,-3.7,-1.6,-354,96.5,5.9,13.2,,2022-11-16 18:46:36+00:00,27.7,45.33,5.9
25.91232504,-80.1375445,18:49.6,11/16/22,7,1.75,152.53,-7.23198201,1.41,154.6,144.74,2.34,7.47,32.8,0.0,3.58,3.58,98,61,524.7,16.3,-3.7,D,583.1,4,18.284,2,1.97,185,145.96,-80.13744218,25.91218878,0,0,1,N,0.5061414,71,71,11,124,124,143.9026,0,9999.99,3.6,3.727,2,9,29.0,0,29.0,44.87,1553.75298,11/16/22,11:51:03,27.73,66.18,44.87,1.187,8.29,-76.9,-3.4,-2.7,-2764,96.1,5.89,13.2,,2022-11-16 18:49:36+00:00,27.73,44.87,5.89
25.91227705,-80.13751697,18:55.6,11/16/22,7,2.124,152.81,-7.23198201,1.42,152.4,142.64,1.72,6.84,32.8,0.0,3.59,3.59,98,61,524.6,16.3,-3.7,D,579.2,4,12.341,2,1.96,185,142.69,-80.13744218,25.91218878,0,0,1,N,1.052446,67,67,11,117,117,140.0275,0,9999.99,3.61,3.737,2,9,29.0,0,29.0,44.93,1553.81618,11/16/22,11:51:10,27.71,66.26,44.93,1.169,8.29,-76.9,-4.4,0.6,-791,96.2,5.89,13.1,,2022-11-16 18:55:36+00:00,27.71,44.93,5.89
25.91226741,-80.13751161,18:56.6,11/16/22,7,2.085,153.28,-7.23198201,1.42,150.8,141.11,1.78,7.63,32.8,0.0,3.6,3.6,98,61,524.6,16.3,-3.7,D,579.6,4,11.165,2,1.93,185,141.54,-80.13744218,25.91218878,0,0,1,N,1.178924,68,68,11,118,118,139.139,0,9999.99,3.62,3.747,2,9,29.0,0,29.0,44.64,1553.51086,11/16/22,11:51:11,27.71,65.88,44.64,1.174,8.29,-76.9,-4.4,-3.0,-1271,96.1,5.9,13.3,,2022-11-16 18:56:36+00:00,27.71,44.64,5.9
25.91225752,-80.13750757,18:57.6,11/16/22,7,1.879,150.47,-7.23198201,1.42,150.3,140.64,1.85,6.6,32.8,0.0,3.61,3.61,98,61,524.6,16.3,-3.7,D,579.6,4,10.059,2,1.93,185,139.45,-80.13744218,25.91218878,0,0,1,N,1.428751,69,69,11,117,117,137.3966,0,9999.99,3.63,3.757,2,9,29.0,0,29.0,44.64,1553.51086,11/16/22,11:51:11,27.71,65.88,44.64,1.174,8.29,-76.9,-4.4,-3.0,-1271,96.1,5.9,13.3,,2022-11-16 18:57:36+00:00,27.71,44.64,5.9
25.91224927,-80.13750285,18:58.6,11/16/22,8,1.825,148.11,-7.23198201,1.42,148.4,138.84,1.85,6.61,32.8,0.0,3.57,3.57,98,61,524.6,16.3,-3.7,D,579.6,4,9.059,2,1.94,185,137.94,-80.13744218,25.91218878,0,0,1,N,1.528645,68,68,11,118,118,136.7044,0,9999.99,3.58,3.707,2,9,29.0,0,29.0,44.8,1553.67927,11/16/22,11:51:12,27.73,66.08,44.8,1.173,8.29,-76.7,-3.1,-2.3,-928,96.0,5.88,13.0,,2022-11-16 18:58:36+00:00,27.73,44.8,5.88
25.91223488,-80.13749042,19:00.6,11/16/22,8,2.071,149.07,-7.23198201,1.3,146.8,137.32,1.44,7.23,32.7,0.0,3.62,3.63,98,60,524.5,16.3,-3.6,D,595.2,4,7.039,2,1.99,185,136.73,-80.13744218,25.91218878,0,0,1,N,1.338922,64,64,11,129,129,138.0215,0,9999.99,3.64,3.767,2,9,29.0,0,29.0,45.03,1553.92136,11/16/22,11:51:14,27.74,66.39,45.03,1.179,8.29,-76.8,-3.5,-5.5,90,95.9,5.87,13.3,,2022-11-16 19:00:36+00:00,27.74,45.03,5.87
25.91222543,-80.1374864,19:01.6,11/16/22,8,2.023,148.17,-7.23198201,1.12,146.8,137.32,1.31,7.1,32.8,0.0,3.68,3.68,98,60,524.5,16.3,-3.6,D,595.2,4,6.014,2,1.99,185,132.66,-80.13744218,25.91218878,0,0,1,N,1.563814,63,63,11,124,124,136.4619,0,9999.99,3.69,3.817,2,9,29.0,0,29.0,44.83,1553.71087,11/16/22,11:51:15,27.71,66.13,44.83,1.168,8.29,-76.9,-3.7,-0.3,-1848,95.9,5.88,13.3,,2022-11-16 19:01:36+00:00,27.71,44.83,5.88
25.91221712,-80.13748084,19:02.6,11/16/22,8,1.971,146.41,-7.23198201,1.12,146.3,136.85,1.3,6.74,32.7,0.0,3.68,3.68,98,60,524.5,16.3,-3.6,D,595.2,5,26.142,1,1.99,181,141.19,-80.13731704,25.91203391,0,0,1,N,1.294868,67,67,11,136,136,138.6256,0,9999.99,3.69,3.817,2,9,29.0,0,29.0,44.68,1553.55295,11/16/22,11:51:17,27.71,65.93,44.68,1.174,8.29,-76.9,-3.6,-4.1,-760,95.7,5.87,13.2,,2022-11-16 19:02:36+00:00,27.71,44.68,5.87
25.91220857,-80.13747437,19:03.6,11/16/22,8,1.939,144.78,-7.23198201,1.12,146.8,137.32,1.41,4.6,32.7,0.0,3.55,3.55,98,59,524.5,16.3,-3.6,D,602.7,5,24.996,1,1.99,178,140.98,-80.13731704,25.91203391,0,0,1,N,1.328691,65,65,11,129,129,137.9211,0,9999.99,3.56,3.687,2,9,28.9,0,28.89999962,44.38,1553.03113,11/16/22,11:51:18,27.73,65.55,44.38,1.19,8.3,-77.2,-3.9,-2.0,-1112,95.9,5.89,13.2,,2022-11-16 19:03:36+00:00,27.73,44.38,5.89
25.91220096,-80.13746805,19:04.6,11/16/22,9,1.91,143.39,-7.23198201,1.12,145.6,136.19,1.97,4.51,32.8,0.0,3.69,3.69,98,59,524.5,16.3,-3.6,D,602.7,5,23.941,1,1.92,174,140.89,-80.13731704,25.91203391,0,0,1,N,1.315153,68,68,11,132,132,137.3308,0,9999.99,3.7,3.827,2,9,28.9,0,28.89999962,44.38,1553.03113,11/16/22,11:51:18,27.73,65.55,44.38,1.19,8.3,-77.2,-3.9,-2.0,-1112,95.9,5.89,13.2,,2022-11-16 19:04:36+00:00,27.73,44.38,5.89
25.91219418,-80.13746244,19:05.6,11/16/22,9,1.795,141.35,-7.23198201,1.12,145.8,136.38,1.86,2.18,32.7,0.0,3.73,3.74,98,59,524.5,16.3,-3.6,D,602.7,5,23.002,1,1.86,170,140.78,-80.13731704,25.91203391,0,0,1,N,1.305491,68,68,11,128,128,136.6799,0,9999.99,3.75,3.877,2,9,28.9,0,28.89999962,44.71,1553.37876,11/16/22,11:51:19,27.73,65.98,44.71,1.161,8.3,-77.1,-4.0,-7.8,-2950,96.1,5.89,13.2,,2022-11-16 19:05:36+00:00,27.73,44.71,5.89
25.91218842,-80.13745697,19:06.6,11/16/22,8,1.679,141.61,-7.23198201,1.24,145.8,136.38,2.53,1.62,32.7,0.0,3.7,3.7,98,39,524.5,16.4,-2.3,D,912.3,5,22.159,1,1.8,167,140.83,-80.13731704,25.91203391,0,0,1,N,1.237242,72,72,11,127,127,136.3069,0,9999.99,3.72,3.847,2,9,28.9,0,28.89999962,44.68,1553.34721,11/16/22,11:51:21,27.7,65.93,44.68,1.147,8.29,-76.8,-3.8,-4.1,-2373,96.3,5.91,13.3,,2022-11-16 19:06:36+00:00,27.7,44.68,5.91
25.91217738,-80.13744738,19:08.6,11/16/22,8,1.603,142.07,-7.23198201,1.12,145.1,135.72,2.51,-0.44,32.7,0.0,3.72,3.72,98,39,524.5,16.4,-2.3,D,912.3,5,20.602,1,1.62,161,140.75,-80.13731704,25.91203391,0,0,1,N,1.180182,72,72,11,127,127,135.601,0,9999.99,3.74,3.867,2,9,28.9,0,28.89999962,44.65,1553.31598,11/16/22,11:51:22,27.69,65.9,44.65,1.144,8.29,-76.8,-3.0,-0.3,-3430,96.5,5.92,13.3,,2022-11-16 19:08:36+00:00,27.69,44.65,5.92
25.91217282,-80.13744315,19:09.6,11/16/22,8,1.404,141.82,-7.23198201,1.12,145.4,136.0,2.05,-1.29,32.7,0.0,3.72,3.72,98,39,524.5,16.4,-2.3,D,912.3,5,19.942,1,1.52,161,140.77,-80.13731704,25.91203391,0,0,1,N,1.138301,70,70,11,126,126,135.894,0,9999.99,3.74,3.867,2,9,28.9,0,28.89999962,44.42,1553.07363,11/16/22,11:51:24,27.73,65.6,44.42,1.145,8.29,-77.0,-3.8,-3.6,-1240,96.6,5.93,13.2,,2022-11-16 19:09:36+00:00,27.73,44.42,5.93
25.91216767,-80.13743941,19:10.6,11/16/22,8,1.231,141.82,-7.23198201,1.12,144.8,135.43,2.3,-0.9,32.8,0.0,3.74,3.74,98,31,524.4,16.4,-1.8,D,1152.8,5,19.262,1,1.41,160,140.55,-80.13731704,25.91203391,0,0,1,N,1.170629,71,71,11,128,128,135.6661,0,9999.99,3.76,3.887,2,9,28.9,0,28.89999962,44.67,1553.33676,11/16/22,11:51:25,27.72,65.93,44.67,1.138,8.29,-77.0,-3.9,-1.7,-3306,96.8,5.93,13.2,,2022-11-16 19:10:36+00:00,27.72,44.67,5.93
25.91216305,-80.13743565,19:11.6,11/16/22,9,1.182,141.82,-7.23198201,1.12,144.7,135.34,2.46,-1.23,32.8,0.0,3.73,3.73,98,31,524.4,16.4,-1.8,D,1152.8,5,18.626,1,1.35,160,140.44,-80.13731704,25.91203391,0,0,1,N,1.165917,72,72,11,127,127,135.698,0,9999.99,3.75,3.877,2,9,28.9,0,28.89999962,44.67,1553.33676,11/16/22,11:51:25,27.72,65.93,44.67,1.138,8.29,-77.0,-3.9,-1.7,-3306,96.8,5.93,13.2,,2022-11-16 19:11:36+00:00,27.72,44.67,5.93
25.9121589,-80.13743184,19:12.6,11/16/22,9,1.229,140.27,-7.23198201,1.12,144.8,135.43,2.11,-1.45,32.8,0.0,3.74,3.74,98,31,524.4,16.4,-1.8,D,1152.8,5,18.027,1,1.28,160,140.44,-80.13731704,25.91203391,0,0,1,N,1.131285,69,69,11,129,129,135.9417,0,9999.99,3.76,3.887,2,9,28.9,0,28.89999962,44.58,1553.24185,11/16/22,11:51:26,27.7,65.8,44.58,1.145,8.3,-77.1,-3.0,-2.7,-3692,96.5,5.92,13.2,,2022-11-16 19:12:36+00:00,27.7,44.58,5.92
25.91215493,-80.13742847,19:13.6,11/16/22,9,1.214,139.04,-7.23198201,1.12,145.5,136.09,1.94,-2.02,32.8,0.0,3.75,3.75,98,30,524.4,16.4,-1.8,D,1192.4,5,17.473,1,1.22,159,140.37,-80.13731704,25.91203391,0,0,1,N,1.115046,69,69,11,127,127,136.0558,0,9999.99,3.77,3.897,2,9,28.9,0,28.89999962,44.05,1552.68375,11/16/22,11:51:28,27.71,65.12,44.05,1.143,8.29,-76.9,-4.0,-6.4,-4642,96.7,5.95,13.1,,2022-11-16 19:13:36+00:00,27.71,44.05,5.95
25.91215104,-80.13742448,19:14.6,11/16/22,9,1.106,138.81,-7.23198201,0.9,145.5,136.09,2.19,-1.86,32.8,0.0,3.76,3.76,98,30,524.4,16.4,-1.8,D,1192.4,5,16.885,1,1.19,159,140.47,-80.13731704,25.91203391,0,0,1,N,1.046097,70,70,11,129,129,136.5409,0,9999.99,3.78,3.907,2,9,28.9,0,28.89999962,44.05,1552.68375,11/16/22,11:51:28,27.71,65.12,44.05,1.143,8.29,-76.9,-4.0,-6.4,-4642,96.7,5.95,13.1,,2022-11-16 19:14:36+00:00,27.71,44.05,5.95
25.91214712,-80.13742085,19:15.6,11/16/22,9,1.099,140.66,-7.23198201,0.9,144.7,135.34,2.04,-1.73,32.8,0.0,3.77,3.77,98,30,524.4,16.4,-1.8,D,1192.4,5,16.318,1,1.19,159,140.49,-80.13731704,25.91203391,0,0,1,N,1.008681,69,69,11,133,133,136.8046,0,9999.99,3.79,3.917,2,9,28.9,0,28.89999962,44.65,1553.31555,11/16/22,11:51:29,27.73,65.9,44.65,1.15,8.29,-76.8,-3.2,-3.1,-2978,96.9,5.94,13.2,,2022-11-16 19:15:36+00:00,27.73,44.65,5.94
25.91214438,-80.13741586,19:16.6,11/16/22,9,1.066,139.67,-7.23198201,0.9,144.8,135.43,1.78,-1.58,32.8,0.0,3.81,3.81,98,30,524.4,16.4,-1.8,D,1192.4,5,15.767,1,1.17,159,141.18,-80.13731704,25.91203391,0,0,1,N,0.7858058,68,68,11,139,139,138.3808,0,9999.99,3.83,3.957,2,9,28.9,0,28.89999962,44.43,1553.08381,11/16/22,11:51:30,27.7,65.6,44.43,1.15,8.29,-76.9,-2.6,-3.1,-2303,96.7,5.94,13.1,,2022-11-16 19:16:36+00:00,27.7,44.43,5.94
25.91214173,-80.13741256,19:17.6,11/16/22,9,1.104,137.58,-7.23198201,0.9,144.9,135.53,2.21,-1.81,32.8,0.0,3.83,3.83,98,29,524.3,16.4,-1.8,D,1200.9,5,15.33,1,1.16,159,141.45,-80.13731704,25.91203391,0,0,1,N,0.6926557,70,70,11,141,141,139.0419,0,9999.99,3.85,3.977,2,9,28.9,0,28.89999962,44.02,1552.65207,11/16/22,11:51:32,27.69,65.08,44.02,1.157,8.3,-77.0,-3.7,-1.2,-2982,96.9,5.97,13.0,,2022-11-16 19:17:36+00:00,27.69,44.02,5.97
25.91213834,-80.13740906,19:18.6,11/16/22,9,1.093,136.3,-7.23198201,0.9,145.4,136.0,1.74,-1.64,32.8,0.0,3.82,3.82,98,29,524.3,16.4,-1.8,D,1200.9,5,14.817,1,1.13,159,141.6,-80.13731704,25.91203391,0,0,1,N,0.6286959,67,67,11,141,141,139.4971,0,9999.99,3.84,3.967,2,9,28.9,0,28.89999962,44.02,1552.65207,11/16/22,11:51:32,27.69,65.08,44.02,1.157,8.3,-77.0,-3.7,-1.2,-2982,96.9,5.97,13.0,,2022-11-16 19:18:36+00:00,27.69,44.02,5.97
25.91213427,-80.13740539,19:19.6,11/16/22,9,1.06,139.21,-7.23198201,0.9,145.1,135.72,1.95,-2.04,32.8,0.0,3.79,3.79,98,29,524.3,16.4,-1.8,D,1200.9,5,14.235,1,1.13,159,141.63,-80.13731704,25.91203391,0,0,1,N,0.5965816,69,69,11,143,143,139.7256,0,9999.99,3.81,3.937,2,9,28.9,0,28.89999962,44.3,1552.9469,11/16/22,11:51:34,27.7,65.45,44.3,1.135,8.29,-77.0,-3.4,-4.8,-2134,96.9,5.96,13.2,,2022-11-16 19:19:36+00:00,27.7,44.3,5.96
25.91213143,-80.13740129,19:20.6,11/16/22,9,1.017,139.07,-7.23198201,0.9,145.8,136.38,1.86,-1.72,32.8,0.0,3.78,3.78,98,29,524.3,16.4,-1.8,D,1200.9,5,13.733,1,1.11,159,142.15,-80.13731704,25.91203391,0,0,1,N,0.451796,67,67,11,145,145,140.7582,0,9999.99,3.79,3.917,2,9,28.9,0,28.89999962,44.3,1552.9469,11/16/22,11:51:34,27.7,65.45,44.3,1.135,8.29,-77.0,-3.4,-4.8,-2134,96.9,5.96,13.2,,2022-11-16 19:20:36+00:00,27.7,44.3,5.96
25.91212829,-80.13739766,19:21.6,11/16/22,9,1.062,136.05,-7.23198201,0.9,146.1,136.66,1.86,-2.07,32.8,0.0,3.77,3.77,98,29,524.3,16.4,-1.7,D,1215.5,5,13.235,1,1.12,158,142.46,-80.13731704,25.91203391,0,0,1,N,0.3622195,68,68,11,146,146,141.398,0,9999.99,3.79,3.917,2,9,28.9,0,28.89999962,44.33,1552.97855,11/16/22,11:51:35,27.67,65.48,44.33,1.149,8.3,-77.1,-4.2,-3.7,-3056,97.0,5.96,13.2,,2022-11-16 19:21:36+00:00,27.67,44.33,5.96
25.91212523,-80.1373935,19:22.6,11/16/22,9,1.071,134.24,-7.23198201,0.9,146.5,137.04,2.04,-1.92,32.8,0.0,3.8,3.8,98,29,524.3,16.4,-1.7,D,1215.5,5,12.712,1,1.12,158,143.02,-80.13731704,25.91203391,0,0,1,N,0.2241142,68,68,11,150,150,142.3857,0,9999.99,3.82,3.947,2,9,28.9,0,28.89999962,44.4,1553.05219,11/16/22,11:51:37,27.72,65.58,44.4,1.135,8.29,-77.0,-4.8,-3.2,-2924,96.9,5.95,13.2,,2022-11-16 19:22:36+00:00,27.72,44.4,5.95
25.91212132,-80.13738984,19:23.6,11/16/22,9,0.984,136.54,-7.23198201,0.9,147.2,137.7,2.08,-2.13,32.8,0.0,3.83,3.83,98,29,524.3,16.4,-1.7,D,1215.5,5,12.144,1,1.1,158,143.16,-80.13731704,25.91203391,0,0,1,N,0.1842606,69,69,11,149,149,142.671,0,9999.99,3.85,3.977,2,9,28.9,0,28.89999962,44.4,1553.05219,11/16/22,11:51:37,27.72,65.58,44.4,1.135,8.29,-77.0,-4.8,-3.2,-2924,96.9,5.95,13.2,,2022-11-16 19:23:36+00:00,27.72,44.4,5.95
25.91211773,-80.13738734,19:24.6,11/16/22,9,0.962,141.8,-7.23198201,0.9,147.8,138.27,2.08,-2.33,32.8,0.0,3.84,3.84,98,28,524.3,16.4,-1.7,D,1242.5,5,11.675,1,1.09,158,142.97,-80.13731704,25.91203391,0,0,1,N,0.2149239,69,69,11,144,144,142.4514,0,9999.99,3.86,3.987,2,9,28.9,0,28.89999962,44.35,1552.99958,11/16/22,11:51:38,27.7,65.5,44.35,1.131,8.29,-77.0,-4.6,-4.2,-3786,96.7,5.94,13.2,,2022-11-16 19:24:36+00:00,27.7,44.35,5.94
25.9121145,-80.13738453,19:25.6,11/16/22,9,1.036,142.34,-7.23198201,0.9,149.0,139.4,2.0,-2.04,32.8,0.0,3.85,3.85,98,28,524.3,16.4,-1.7,D,1242.5,5,11.22,1,1.05,158,143.01,-80.13731704,25.91203391,0,0,1,N,0.1965266,69,69,11,140,140,142.5831,0,9999.99,3.87,3.997,2,9,28.9,0,28.89999962,43.79,1552.40995,11/16/22,11:51:40,27.7,64.78,43.79,1.14,8.3,-77.2,-2.9,-1.1,-3983,96.7,5.96,13.0,,2022-11-16 19:25:36+00:00,27.7,43.79,5.96
25.91211075,-80.13738093,19:26.6,11/16/22,9,1.076,139.48,-7.23198201,0.9,149.0,139.4,2.07,-1.99,32.8,0.0,3.85,3.85,98,28,524.3,16.4,-1.7,D,1242.5,5,10.669,1,1.06,158,143.21,-80.13731704,25.91203391,0,0,1,N,0.1504438,69,69,11,141,141,142.913,0,9999.99,3.87,3.997,2,9,28.9,0,28.89999962,43.79,1552.40995,11/16/22,11:51:40,27.7,64.78,43.79,1.14,8.3,-77.2,-2.9,-1.1,-3983,96.7,5.96,13.0,,2022-11-16 19:26:36+00:00,27.7,43.79,5.96
25.91210705,-80.1373781,19:27.6,11/16/22,9,0.956,140.8,-7.23198201,0.9,149.8,140.16,1.85,-1.92,32.8,0.0,3.81,3.82,98,28,524.3,16.4,-1.7,D,1242.5,5,10.171,1,1.06,158,143.1,-80.13731704,25.91203391,0,0,1,N,0.162609,68,68,11,138,138,142.8259,0,9999.99,3.83,3.957,2,9,28.9,0,28.89999962,44.4,1553.05228,11/16/22,11:51:41,27.71,65.57,44.4,1.117,8.3,-77.1,-3.3,-5.3,-1377,96.7,5.94,13.2,,2022-11-16 19:27:36+00:00,27.71,44.4,5.94
25.9121033,-80.13737566,19:28.6,11/16/22,9,0.94,143.88,-7.23198201,0.9,150.8,141.11,1.99,-2.29,32.9,0.0,3.83,3.83,98,28,524.2,16.4,-1.7,D,1250.9,5,9.691,1,1.04,158,142.77,-80.13731704,25.91203391,0,0,1,N,0.2097299,69,69,11,133,133,142.4887,0,9999.99,3.85,3.977,2,9,28.9,0,28.89999962,44.09,1552.72583,11/16/22,11:51:43,27.67,65.16,44.09,1.126,8.29,-76.8,-2.6,-3.3,-2450,96.6,5.95,13.3,,2022-11-16 19:28:36+00:00,27.67,44.09,5.95
25.91209855,-80.13737427,19:29.6,11/16/22,9,1.046,147.66,-7.23198201,0.9,150.8,141.11,2.13,-2.13,32.9,0.0,3.86,3.86,98,28,524.2,16.4,-1.7,D,1250.9,5,9.188,1,1.03,158,141.46,-80.13731704,25.91203391,0,0,1,N,0.4077326,70,70,11,126,126,141.0729,0,9999.99,3.88,4.007,2,9,28.9,0,28.89999962,44.09,1552.72583,11/16/22,11:51:43,27.67,65.16,44.09,1.126,8.29,-76.8,-2.6,-3.3,-2450,96.6,5.95,13.3,,2022-11-16 19:29:36+00:00,27.67,44.09,5.95
25.91209451,-80.13737155,19:30.6,11/16/22,8,1.002,144.86,-7.23198201,1.12,151.4,141.68,1.68,-1.78,32.9,0.0,3.86,3.86,98,28,524.2,16.4,-1.7,D,1250.9,5,8.668,1,1.03,158,141.03,-80.13731704,25.91203391,0,0,1,N,0.4511842,67,67,11,123,123,140.7623,0,9999.99,3.88,4.007,2,9,28.9,0,28.89999962,43.91,1552.53625,11/16/22,11:51:44,27.7,64.93,43.91,1.142,8.29,-77.0,-3.0,2.5,-3690,96.4,5.94,13.1,,2022-11-16 19:30:36+00:00,27.7,43.91,5.94
25.91209025,-80.13736866,19:31.6,11/16/22,9,0.967,148.27,-7.23198201,1.12,150.4,140.73,1.94,-1.89,32.9,0.0,3.86,3.86,98,29,524.2,16.4,-1.7,D,1236.0,5,8.118,1,1.05,158,140.51,-80.13731704,25.91203391,0,0,1,N,0.4963071,69,69,11,126,126,140.4403,0,9999.99,3.88,4.007,2,9,28.9,0,28.89999962,44.02,1552.65207,11/16/22,11:51:46,27.66,65.08,44.02,1.134,8.3,-77.1,-3.5,-2.7,-1858,96.5,5.94,13.3,,2022-11-16 19:31:36+00:00,27.66,44.02,5.94
25.91208639,-80.13736626,19:32.6,11/16/22,9,1.049,152.78,-7.23198201,1.12,150.6,140.92,1.94,-1.71,32.9,0.0,3.87,3.87,98,29,524.2,16.4,-1.7,D,1236.0,5,7.635,1,1.06,158,139.85,-80.13731704,25.91203391,0,0,1,N,0.5543363,69,69,11,122,122,140.0265,0,9999.99,3.89,4.017,2,9,28.9,0,28.89999962,44.02,1552.65207,11/16/22,11:51:46,27.66,65.08,44.02,1.134,8.3,-77.1,-3.5,-2.7,-1858,96.5,5.94,13.3,,2022-11-16 19:32:36+00:00,27.66,44.02,5.94
25.9120822,-80.13736449,19:33.6,11/16/22,8,1.067,151.65,-7.23198201,1.12,150.5,140.83,1.62,-1.67,32.9,0.0,3.47,3.47,98,29,524.2,16.4,-1.7,D,1236.0,5,7.166,1,1.05,158,138.53,-80.13731704,25.91203391,0,0,1,N,0.6850529,67,67,11,120,120,139.0958,0,9999.99,3.49,3.617,2,9,28.9,0,28.89999962,43.83,1552.45192,11/16/22,11:51:47,27.68,64.83,43.83,1.134,8.3,-77.1,-2.6,-2.2,-2806,96.8,5.97,13.1,,2022-11-16 19:33:36+00:00,27.68,43.83,5.97
25.91207759,-80.13736173,19:34.7,11/16/22,9,1.014,147.78,-7.23198201,1.12,149.8,140.16,2.02,-2.25,32.9,0.0,3.62,3.63,98,29,524.2,16.4,-1.7,D,1236.0,5,6.601,1,1.05,158,137.38,-80.13731704,25.91203391,0,0,1,N,0.7646556,69,69,11,120,120,138.5306,0,9999.99,3.64,3.767,2,9,28.8,0,28.79999924,43.94,1552.36078,11/16/22,11:51:49,27.65,64.98,43.94,1.137,8.3,-77.0,-1.7,-5.4,-3177,97.0,5.98,13.2,,2022-11-16 19:34:42+00:00,27.65,43.94,5.98
25.91207374,-80.13735917,19:35.7,11/16/22,9,0.989,148.82,-7.23198201,1.12,149.1,139.5,2.16,-1.7,32.9,0.0,3.91,3.91,98,28,524.1,16.4,-1.7,D,1242.2,6,28.326,1,1.04,158,192.91,-80.13742242,25.91182544,0,0,1,N,0.8099927,70,70,11,250,250,171.5387,0,9999.99,3.92,4.047,2,9,28.8,0,28.79999924,43.94,1552.36078,11/16/22,11:51:49,27.65,64.98,43.94,1.137,8.3,-77.0,-1.7,-5.4,-3177,97.0,5.98,13.2,,2022-11-16 19:35:42+00:00,27.65,43.94,5.98
25.91206167,-80.13735333,19:38.7,11/16/22,8,0.968,146.96,-7.23198201,1.12,158.8,148.77,2.58,-1.37,32.9,0.0,3.92,3.92,98,29,524.1,16.4,-1.7,D,1234.5,6,27.156,1,0.99,158,194.79,-80.13742242,25.91182544,0,0,1,N,4.606638,72,72,11,249,249,179.265,0,9999.99,3.94,4.067,2,9,28.8,0,28.79999924,43.87,1552.28694,11/16/22,11:51:52,27.66,64.89,43.87,1.113,8.3,-77.1,-3.1,-1.3,-1851,96.5,5.95,13.2,,2022-11-16 19:38:42+00:00,27.66,43.87,5.95
25.91205833,-80.1373505,19:39.7,11/16/22,8,0.865,148.62,-7.23198201,1.12,164.0,153.8,2.76,-2.99,32.9,0.0,3.89,3.89,98,29,524.1,16.4,-1.7,D,1234.5,6,26.806,1,0.96,158,195.42,-80.13742242,25.91182544,0,0,1,N,4.249654,74,74,11,232,232,180.1321,0,9999.99,3.91,4.037,2,9,28.8,0,28.79999924,43.87,1552.28728,11/16/22,11:51:53,27.67,64.88,43.87,1.136,8.3,-77.1,-3.1,-4.8,-5936,96.6,5.95,13.2,,2022-11-16 19:39:42+00:00,27.67,43.87,5.95
25.91205417,-80.137349,19:40.7,11/16/22,8,0.929,155.23,-7.23198201,1.12,168.4,158.1,2.76,-2.23,32.9,0.0,3.91,3.91,98,29,524.1,16.4,-1.7,D,1234.5,6,26.498,1,0.94,158,196.16,-80.13742242,25.91182544,0,0,1,N,3.857946,74,74,11,220,220,181.4176,0,9999.99,3.93,4.057,2,9,28.8,0,28.79999924,44.11,1552.5401,11/16/22,11:51:54,27.7,65.19,44.11,1.127,8.3,-77.1,-2.8,-3.3,-3327,96.4,5.93,13.1,,2022-11-16 19:40:42+00:00,27.7,44.11,5.93
25.91204542,-80.13734721,19:42.8,11/16/22,8,0.91,165.97,-7.23198201,1.16,177.2,166.79,2.68,-2.9,32.9,0.0,3.84,3.84,98,29,524.1,16.4,-1.7,D,1215.9,6,25.591,1,0.9,158,197.09,-80.13742242,25.91182544,0,0,1,N,3.27415,73,73,11,191,191,182.7401,0,9999.99,3.86,3.987,2,9,28.8,0,28.79999924,43.56,1551.96077,11/16/22,11:51:56,27.68,64.48,43.56,1.114,8.3,-77.2,-2.3,-5.7,-3416,96.2,5.94,13.1,,2022-11-16 19:42:48+00:00,27.68,43.56,5.94
25.91204137,-80.13734694,19:43.8,11/16/22,9,0.849,170.32,-7.23198201,1.16,181.7,171.29,2.66,-3.05,32.9,0.0,3.94,3.94,98,29,524.1,16.4,-1.7,D,1215.9,6,25.17,1,0.91,158,197.45,-80.13742242,25.91182544,0,0,1,N,3.050723,73,73,11,177,177,183.6712,0,9999.99,3.96,4.087,2,9,28.8,0,28.79999924,44.06,1552.48738,11/16/22,11:51:57,27.72,65.13,44.06,1.117,8.29,-76.9,-3.3,-4.9,-4376,96.3,5.93,13.2,,2022-11-16 19:43:48+00:00,27.72,44.06,5.93
25.91203767,-80.13734717,19:44.8,11/16/22,9,0.912,176.44,-7.23198201,1.11,183.7,173.31,2.47,-2.08,32.9,0.0,3.9,3.9,98,29,524.1,16.4,-1.7,D,1215.9,6,24.764,1,0.91,158,197.85,-80.13742242,25.91182544,0,0,1,N,2.87552,72,72,11,173,173,184.6807,0,9999.99,3.92,4.047,2,9,28.8,0,28.79999924,43.52,1551.91828,11/16/22,11:51:59,27.71,64.44,43.52,1.113,8.3,-77.2,-2.8,-3.5,-3775,96.2,5.94,13.2,,2022-11-16 19:44:48+00:00,27.71,43.52,5.94
25.91203274,-80.13734782,19:45.8,11/16/22,9,0.951,182.62,-7.23198201,1.11,187.2,176.85,2.17,-2.59,32.9,0.0,3.89,3.89,98,29,524.0,16.4,-1.7,D,1226.7,6,24.229,1,0.91,158,197.94,-80.13742242,25.91182544,0,0,1,N,2.707827,71,71,11,162,162,185.4882,0,9999.99,3.91,4.037,2,9,28.8,0,28.79999924,43.52,1551.91828,11/16/22,11:51:59,27.71,64.44,43.52,1.113,8.3,-77.2,-2.8,-3.5,-3775,96.2,5.94,13.2,,2022-11-16 19:45:48+00:00,27.71,43.52,5.94
25.91202852,-80.13734834,19:46.8,11/16/22,9,0.944,183.23,-7.23198201,0.9,189.0,178.67,1.88,-2.42,32.9,0.0,3.88,3.88,98,29,524.0,16.4,-1.7,D,1226.7,6,23.766,1,0.93,158,198.16,-80.13742242,25.91182544,0,0,1,N,2.579368,68,68,11,159,159,186.373,0,9999.99,3.9,4.027,2,9,28.8,0,28.79999924,43.87,1552.28732,11/16/22,11:52:00,27.73,64.89,43.87,1.138,8.3,-77.1,-2.2,-4.9,734,96.2,5.92,13.0,,2022-11-16 19:46:48+00:00,27.73,43.87,5.92
25.91202419,-80.13734886,19:47.8,11/16/22,9,0.881,185.32,-7.23198201,0.9,190.3,180.0,2.01,-2.12,32.9,0.0,3.8,3.81,98,29,524.0,16.4,-1.7,D,1226.7,6,23.292,1,0.95,158,198.41,-80.13742242,25.91182544,0,0,1,N,2.437627,69,69,11,156,156,187.3371,0,9999.99,3.82,3.947,2,9,28.8,0,28.79999924,43.56,1551.96042,11/16/22,11:52:02,27.73,64.49,43.56,1.111,8.29,-76.9,-2.1,-4.3,-3091,96.4,5.95,13.2,,2022-11-16 19:47:48+00:00,27.73,43.56,5.95
25.91201977,-80.13734937,19:48.8,11/16/22,9,0.952,188.15,-7.23198201,0.9,191.7,181.42,1.83,-1.95,32.8,0.0,3.75,3.75,98,29,524.0,16.4,-1.7,D,1226.7,6,22.81,1,0.97,158,198.68,-80.13742242,25.91182544,0,0,1,N,2.292044,68,68,11,155,155,188.3296,0,9999.99,3.77,3.897,2,9,28.8,0,28.79999924,43.56,1551.96042,11/16/22,11:52:02,27.73,64.49,43.56,1.111,8.29,-76.9,-2.1,-4.3,-3091,96.4,5.95,13.2,,2022-11-16 19:48:48+00:00,27.73,43.56,5.95
25.91201527,-80.13735056,19:49.8,11/16/22,8,0.971,190.96,-7.23198201,1.11,193.4,183.16,1.93,-2.34,32.8,0.0,3.79,3.79,98,29,524.0,16.4,-1.7,D,1228.7,6,22.297,1,0.98,158,198.8,-80.13742242,25.91182544,0,0,1,N,2.14332,69,69,11,150,150,189.021,0,9999.99,3.81,3.937,2,9,28.8,0,28.79999924,43.68,1552.08687,11/16/22,11:52:03,27.72,64.64,43.68,1.121,8.3,-77.3,-3.4,-2.0,-4280,96.4,5.94,13.2,,2022-11-16 19:49:48+00:00,27.72,43.68,5.94
25.912011,-80.1373519,19:50.8,11/16/22,8,0.989,191.94,-7.23198201,1.11,193.8,183.57,2.0,-1.41,32.8,0.0,3.79,3.8,98,29,524.0,16.4,-1.7,D,1228.7,6,21.806,1,0.99,158,198.87,-80.13742242,25.91182544,0,0,1,N,2.047194,69,69,11,151,151,189.5394,0,9999.99,3.81,3.937,2,9,28.8,0,28.79999924,43.7,1552.10794,11/16/22,11:52:05,27.74,64.67,43.7,1.136,8.3,-77.3,-3.5,-3.8,-1952,96.1,5.92,13.2,,2022-11-16 19:50:48+00:00,27.74,43.7,5.92
25.91200675,-80.13735326,19:51.8,11/16/22,8,0.916,194.07,-7.23198201,1.11,195.7,185.52,1.87,-1.98,32.9,0.0,3.79,3.79,98,29,524.0,16.4,-1.7,D,1228.7,6,21.315,1,1.01,158,198.94,-80.13742242,25.91182544,0,0,1,N,1.979363,68,68,11,145,145,189.9995,0,9999.99,3.81,3.937,2,9,28.8,0,28.79999924,43.7,1552.10794,11/16/22,11:52:05,27.74,64.67,43.7,1.136,8.3,-77.3,-3.5,-3.8,-1952,96.1,5.92,13.2,,2022-11-16 19:51:48+00:00,27.74,43.7,5.92
25.91200226,-80.13735493,19:52.8,11/16/22,8,0.994,196.56,-7.23198201,1.11,196.2,186.04,1.66,-2.51,32.9,0.0,3.8,3.8,98,29,524.0,16.4,-1.7,D,1222.5,6,20.787,1,1.0,158,198.95,-80.13742242,25.91182544,0,0,1,N,1.91972,67,67,11,144,144,190.3654,0,9999.99,3.82,3.947,2,9,28.8,0,28.79999924,43.58,1551.98148,11/16/22,11:52:06,27.71,64.51,43.58,1.128,8.3,-77.2,-3.6,-7.8,1691,96.2,5.94,13.2,,2022-11-16 19:52:48+00:00,27.71,43.58,5.94
25.91199783,-80.13735694,19:53.8,11/16/22,8,1.099,199.74,-7.23198201,1.11,197.0,186.86,1.75,-1.6,32.8,0.0,3.78,3.78,98,29,524.0,16.4,-1.7,D,1222.5,6,20.257,1,1.02,158,198.86,-80.13742242,25.91182544,0,0,1,N,1.876783,68,68,11,141,141,190.5333,0,9999.99,3.8,3.927,2,9,28.8,0,28.79999924,43.5,1551.89721,11/16/22,11:52:08,27.71,64.4,43.5,1.128,8.3,-77.0,-2.4,0.1,-3323,96.2,5.94,13.1,,2022-11-16 19:53:48+00:00,27.71,43.5,5.94
25.91199333,-80.13735928,19:54.8,11/16/22,8,1.032,199.18,-7.23198201,1.11,197.6,187.48,1.66,-1.56,32.8,0.0,3.76,3.77,98,29,524.0,16.4,-1.7,D,1222.5,6,19.708,1,1.02,158,198.69,-80.13742242,25.91182544,0,0,1,N,1.861394,68,68,11,139,139,190.4961,0,9999.99,3.78,3.907,2,9,28.8,0,28.79999924,43.5,1551.89721,11/16/22,11:52:08,27.71,64.4,43.5,1.128,8.3,-77.0,-2.4,0.1,-3323,96.2,5.94,13.1,,2022-11-16 19:54:48+00:00,27.71,43.5,5.94
25.91198892,-80.13736114,19:55.8,11/16/22,8,0.975,198.94,-7.23198201,1.11,198.7,188.61,1.66,-1.6,32.8,0.0,3.74,3.74,98,29,524.0,16.4,-1.7,D,1222.5,6,19.184,1,1.02,158,198.63,-80.13742242,25.91182544,0,0,1,N,1.865236,67,67,11,135,135,190.7057,0,9999.99,3.75,3.877,2,9,28.8,0,28.79999924,43.31,1551.69716,11/16/22,11:52:09,27.73,64.16,43.31,1.115,8.3,-77.2,-2.2,0.2,-3627,96.2,5.94,13.2,,2022-11-16 19:55:48+00:00,27.73,43.31,5.94
25.91198425,-80.13736315,19:56.8,11/16/22,8,1.06,200.03,-7.23198201,1.11,199.7,189.64,1.55,-1.48,32.8,0.0,3.73,3.73,98,29,524.0,16.4,-1.7,D,1229.3,6,18.627,1,1.03,158,198.56,-80.13742242,25.91182544,0,0,1,N,1.84726,66,66,11,133,133,190.9219,0,9999.99,3.74,3.867,2,9,28.8,0,28.79999924,43.52,1551.91832,11/16/22,11:52:10,27.74,64.43,43.52,1.129,8.3,-77.2,-3.8,-2.7,-5673,96.1,5.93,13.2,,2022-11-16 19:56:48+00:00,27.74,43.52,5.93
25.91197983,-80.13736496,19:57.8,11/16/22,8,1.064,201.52,-7.23198201,1.11,199.4,189.33,1.67,-1.79,32.8,0.0,3.71,3.71,98,29,524.0,16.4,-1.7,D,1229.3,6,18.104,1,1.02,158,198.51,-80.13742242,25.91182544,0,0,1,N,1.827393,68,68,11,133,133,191.1909,0,9999.99,3.72,3.847,2,9,28.8,0,28.79999924,43.44,1551.83399,11/16/22,11:52:11,27.71,64.33,43.44,1.13,8.3,-77.3,-3.6,-1.6,-1679,96.2,5.94,13.2,,2022-11-16 19:57:48+00:00,27.71,43.44,5.94
25.91197526,-80.13736666,19:58.8,11/16/22,8,1.06,199.47,-7.23198201,1.11,199.7,189.64,1.48,-1.31,32.8,0.0,3.69,3.69,98,29,523.9,16.4,-1.7,D,1222.3,6,17.568,1,1.02,158,198.51,-80.13742242,25.91182544,0,0,1,N,1.783252,66,66,11,134,134,191.565,0,9999.99,3.7,3.827,2,9,28.8,0,28.79999924,43.38,1551.77077,11/16/22,11:52:13,27.71,64.24,43.38,1.13,8.3,-77.2,-3.6,-3.6,-2834,96.3,5.95,13.2,,2022-11-16 19:58:48+00:00,27.71,43.38,5.95
25.91196605,-80.137371,20:00.9,11/16/22,9,0.98,203.68,-7.23198201,1.11,200.0,189.95,1.52,-1.67,32.8,0.0,3.63,3.63,98,29,523.9,16.4,-1.7,D,1222.3,6,16.46,1,0.98,158,198.21,-80.13742242,25.91182544,0,0,1,N,1.796528,66,66,11,134,134,191.7933,0,9999.99,3.65,3.777,2,9,28.8,0,28.79999924,43.36,1551.74955,11/16/22,11:52:14,27.74,64.22,43.36,1.122,8.3,-77.2,-2.5,-3.3,-4428,96.1,5.94,13.2,,2022-11-16 20:00:54+00:00,27.74,43.36,5.94
25.9119617,-80.13737316,20:01.9,11/16/22,9,1.093,207.1,-7.23198201,1.11,200.9,190.88,2.04,-1.44,32.9,0.0,3.6,3.6,98,29,523.9,16.4,-1.7,D,1222.3,6,15.933,1,0.99,158,198.01,-80.13742242,25.91182544,0,0,1,N,1.793481,69,69,11,131,131,191.8143,0,9999.99,3.61,3.737,2,9,28.8,0,28.79999924,43.19,1551.57048,11/16/22,11:52:16,27.73,64.0,43.19,1.126,8.3,-77.1,-2.5,-2.6,-991,96.2,5.95,13.2,,2022-11-16 20:01:54+00:00,27.73,43.19,5.95
25.91195801,-80.13737499,20:02.9,11/16/22,9,1.074,205.37,-7.23198201,0.9,200.2,190.16,2.03,-0.95,32.8,0.0,3.6,3.61,98,29,523.9,16.4,-1.7,D,1222.3,6,15.485,1,1.01,158,197.84,-80.13742242,25.91182544,0,0,1,N,1.727597,69,69,11,132,132,191.8263,0,9999.99,3.62,3.747,2,9,28.8,0,28.79999924,43.35,1551.7392,11/16/22,11:52:17,27.69,64.21,43.35,1.124,8.3,-77.1,-1.8,-3.3,-2636,96.4,5.96,13.1,,2022-11-16 20:02:54+00:00,27.69,43.35,5.96
25.9119531,-80.13737767,20:03.9,11/16/22,9,1.033,203.98,-7.23198201,0.9,201.1,191.09,1.72,-1.86,32.8,0.0,3.61,3.62,98,29,523.9,16.4,-1.7,D,1222.3,6,14.884,1,1.02,158,197.5,-80.13742242,25.91182544,0,0,1,N,1.809782,67,67,11,129,129,191.7031,0,9999.99,3.63,3.757,2,9,28.8,0,28.79999924,43.13,1551.5074,11/16/22,11:52:18,27.73,63.92,43.13,1.109,8.3,-77.4,-2.6,-4.3,-2942,96.3,5.96,13.2,,2022-11-16 20:03:54+00:00,27.73,43.13,5.96
25.91194714,-80.13738079,20:04.9,11/16/22,9,1.08,201.59,-7.23198201,0.9,201.1,191.09,1.65,-1.48,32.8,0.0,3.57,3.57,98,29,523.9,16.4,-1.7,D,1222.3,6,14.159,1,1.04,158,197.1,-80.13742242,25.91182544,0,0,1,N,1.820468,67,67,11,129,129,191.6303,0,9999.99,3.59,3.717,2,9,28.8,0,28.79999924,43.29,1551.67579,11/16/22,11:52:19,27.69,64.13,43.29,1.139,8.3,-77.4,-4.0,-3.2,128,96.3,5.95,13.2,,2022-11-16 20:04:54+00:00,27.69,43.29,5.95
25.91192897,-80.13738994,20:08.9,11/16/22,9,1.061,201.73,-7.23198201,1.11,201.1,191.09,1.89,-1.84,32.9,0.0,3.47,3.47,98,28,523.8,16.4,-1.7,D,1249.5,6,11.962,1,1.04,158,195.76,-80.13742242,25.91182544,0,0,1,N,1.81788,68,68,11,129,129,191.6474,0,9999.99,3.49,3.617,2,9,28.8,0,28.79999924,43.13,1551.50726,11/16/22,11:52:23,27.69,63.93,43.13,1.123,8.3,-77.2,-3.1,0.5,985,96.5,5.97,13.2,,2022-11-16 20:08:54+00:00,27.69,43.13,5.97
25.91192517,-80.13739165,20:09.9,11/16/22,8,1.056,203.5,-7.23198201,1.11,200.5,190.47,1.74,-1.03,32.9,0.0,3.45,3.46,98,28,523.8,16.4,-1.7,D,1249.5,6,11.508,1,1.03,158,195.51,-80.13742242,25.91182544,0,0,1,N,1.800937,67,67,11,131,131,191.7634,0,9999.99,3.47,3.597,2,9,28.8,0,28.79999924,42.92,1551.28603,11/16/22,11:52:24,27.71,63.66,42.92,1.125,8.3,-77.3,-3.0,-1.7,-2345,96.5,5.98,13.0,,2022-11-16 20:09:54+00:00,27.71,42.92,5.98
25.91192133,-80.13739315,20:10.9,11/16/22,8,1.019,203.76,-7.23198201,1.11,200.6,190.57,1.86,-1.88,32.8,0.0,3.41,3.42,98,28,523.8,16.4,-1.7,D,1249.5,6,11.057,1,1.04,158,195.36,-80.13742242,25.91182544,0,0,1,N,1.760495,68,68,11,133,133,192.0388,0,9999.99,3.43,3.557,2,9,28.8,0,28.79999924,43.12,1551.4968,11/16/22,11:52:25,27.69,63.91,43.12,1.121,8.3,-77.3,-3.3,-3.2,-1254,96.5,5.97,13.2,,2022-11-16 20:10:54+00:00,27.69,43.12,5.97
25.91191748,-80.13739496,20:11.9,11/16/22,8,1.02,201.27,-7.23198201,1.11,200.5,190.47,1.55,-1.46,32.8,0.0,3.39,3.4,98,28,523.8,16.4,-1.7,D,1249.5,6,10.596,1,1.04,158,195.02,-80.13742242,25.91182544,0,0,1,N,1.745848,66,66,11,134,134,192.1394,0,9999.99,3.41,3.537,2,9,28.8,0,28.79999924,42.91,1551.27569,11/16/22,11:52:26,27.72,63.64,42.91,1.134,8.3,-77.3,-3.7,-7.6,-1395,96.5,5.98,13.2,,2022-11-16 20:11:54+00:00,27.72,42.91,5.98
25.91191281,-80.13739736,20:12.9,11/16/22,8,1.041,200.77,-7.23198201,1.11,199.7,189.64,1.6,-1.58,32.8,0.0,3.37,3.37,98,28,523.8,16.4,-1.7,D,1248.0,6,10.033,1,1.07,158,194.47,-80.13742242,25.91182544,0,0,1,N,1.750436,68,68,11,134,134,192.1078,0,9999.99,3.38,3.507,2,9,28.8,0,28.79999924,43.11,1551.48638,11/16/22,11:52:27,27.68,63.89,43.11,1.149,8.3,-77.5,-3.5,-2.7,-2970,96.5,5.97,13.3,,2022-11-16 20:12:54+00:00,27.68,43.11,5.97
25.91190829,-80.1373995,20:13.9,11/16/22,8,1.035,202.04,-7.23198201,1.11,199.9,189.85,1.83,-1.17,32.8,0.0,3.34,3.34,98,28,523.8,16.4,-1.7,D,1248.0,6,9.493,1,1.08,158,193.97,-80.13742242,25.91182544,0,0,1,N,1.739069,68,68,11,136,136,192.1852,0,9999.99,3.35,3.477,2,9,28.8,0,28.79999924,43.07,1551.44402,11/16/22,11:52:28,27.72,63.85,43.07,1.112,8.3,-77.1,-3.0,-3.2,-2355,96.5,5.97,13.1,,2022-11-16 20:13:54+00:00,27.72,43.07,5.97
25.91190378,-80.13740211,20:14.9,11/16/22,8,1.1,204.43,-7.23198201,1.11,200.2,190.16,1.52,-1.25,32.8,0.0,3.29,3.29,98,28,523.8,16.4,-1.7,D,1248.0,6,8.945,1,1.06,158,193.13,-80.13742242,25.91182544,0,0,1,N,1.767545,66,66,11,134,134,191.9903,0,9999.99,3.31,3.437,2,9,28.8,0,28.79999924,43.07,1551.444,11/16/22,11:52:29,27.67,63.84,43.07,1.126,8.3,-77.2,-2.1,-6.7,-1194,96.5,5.97,13.2,,2022-11-16 20:14:54+00:00,27.67,43.07,5.97
25.91189913,-80.13740477,20:15.9,11/16/22,9,1.106,205.52,-7.23198201,1.11,200.2,190.16,1.79,-2.37,32.9,0.0,3.27,3.27,98,28,523.8,16.4,-1.7,D,1251.6,6,8.382,1,1.05,158,192.16,-80.13742242,25.91182544,0,0,1,N,1.795654,68,68,11,134,134,191.7991,0,9999.99,3.28,3.407,2,9,28.8,0,28.79999924,43.13,1551.50727,11/16/22,11:52:30,27.71,63.92,43.13,1.122,8.3,-77.2,-3.2,0.0,-688,96.4,5.97,13.3,,2022-11-16 20:15:54+00:00,27.71,43.13,5.97
25.91189024,-80.13740899,20:17.9,11/16/22,8,1.079,200.12,-7.23198201,1.11,199.7,189.64,1.78,-1.84,32.8,0.0,3.21,3.21,98,29,523.8,16.4,-1.7,D,1228.3,6,7.329,1,1.05,158,190.56,-80.13742242,25.91182544,0,0,1,N,1.706314,68,68,11,136,136,191.9493,0,9999.99,3.23,3.357,2,9,28.8,0,28.79999924,43.01,1551.38089,11/16/22,11:52:32,27.7,63.77,43.01,1.121,8.3,-77.1,-1.9,-2.6,-4887,96.3,5.96,13.1,,2022-11-16 20:17:54+00:00,27.7,43.01,5.96
25.91188494,-80.13741108,20:18.9,11/16/22,8,1.001,201.14,-7.23198201,1.11,199.5,189.43,1.57,-1.07,32.8,0.0,3.19,3.19,98,29,523.8,16.4,-1.7,D,1228.3,6,6.712,1,1.06,158,189.72,-80.13742242,25.91182544,0,0,1,N,1.719478,66,66,11,139,139,192.3193,0,9999.99,3.2,3.327,2,9,28.8,0,28.79999924,42.79,1551.14909,11/16/22,11:52:33,27.67,63.48,42.79,1.125,8.3,-77.4,-4.5,-6.6,-2291,96.4,5.98,13.2,,2022-11-16 20:18:54+00:00,27.67,42.79,5.98
25.91188004,-80.13741311,20:19.9,11/16/22,9,1.084,202.28,-7.23198201,1.11,200.4,190.36,1.73,-2.13,32.8,0.0,3.16,3.17,98,28,523.7,16.4,-1.7,D,1237.3,7,20.044,1,1.06,158,184.55,-80.137429,25.91170035,0,0,1,N,1.679224,67,67,11,125,125,189.8511,0,9999.99,3.18,3.307,2,9,28.7,0,28.70000076,42.95,1551.10936,11/16/22,11:52:34,27.68,63.69,42.95,1.114,8.3,-77.4,-3.9,-5.7,-458,96.3,5.96,13.2,,2022-11-16 20:19:54+00:00,27.68,42.95,5.96
25.91187564,-80.13741527,20:20.9,11/16/22,9,1.09,201.3,-7.23198201,1.11,199.3,189.23,1.59,-1.92,32.9,0.0,3.13,3.14,98,28,523.7,16.4,-1.7,D,1237.3,7,19.539,1,1.05,158,184.03,-80.137429,25.91170035,0,0,1,N,0.460666,67,67,11,110,110,184.7061,0,9999.99,3.15,3.277,2,9,28.8,0,28.79999924,42.76,1551.11754,11/16/22,11:52:35,27.7,63.45,42.76,1.122,8.3,-77.2,-2.0,-2.3,-45,96.4,5.98,13.2,,2022-11-16 20:20:54+00:00,27.7,42.76,5.98
25.91187147,-80.13741676,20:21.9,11/16/22,9,0.976,198.96,-7.23198201,0.9,198.8,188.71,1.49,-1.95,32.9,0.0,3.11,3.11,98,28,523.7,16.4,-1.7,D,1237.3,7,19.067,1,1.05,158,183.68,-80.137429,25.91170035,0,0,1,N,0.3324779,66,66,11,109,109,184.2021,0,9999.99,3.12,3.247,2,9,28.7,0,28.70000076,42.95,1551.10928,11/16/22,11:52:36,27.66,63.69,42.95,1.115,8.3,-77.2,-4.6,-5.7,-2325,96.3,5.97,13.1,,2022-11-16 20:21:54+00:00,27.66,42.95,5.97
25.91186677,-80.13741821,20:22.9,11/16/22,9,1.058,201.24,-7.23198201,0.9,197.6,187.48,1.82,-1.74,32.9,0.0,3.08,3.08,98,28,523.7,16.4,-1.7,D,1237.3,7,18.537,1,1.06,158,183.34,-80.137429,25.91170035,0,0,1,N,0.2113724,68,68,11,112,112,183.6971,0,9999.99,3.09,3.217,2,9,28.7,0,28.70000076,43.22,1551.39391,11/16/22,11:52:37,27.71,64.05,43.22,1.126,8.3,-77.1,-2.9,-6.1,-4047,96.1,5.94,13.2,,2022-11-16 20:22:54+00:00,27.71,43.22,5.94
25.91186203,-80.13742036,20:23.9,11/16/22,9,1.046,203.9,-7.23198201,0.9,196.7,186.55,1.79,-1.33,32.9,0.0,3.03,3.04,98,29,523.7,16.4,-1.7,D,1234.4,7,17.998,1,1.06,158,182.75,-80.137429,25.91170035,0,0,1,N,0.0206,68,68,11,112,112,182.8093,0,9999.99,3.05,3.177,2,9,28.7,0,28.70000076,42.8,1550.95131,11/16/22,11:52:38,27.68,63.49,42.8,1.101,8.3,-77.2,-3.9,-4.7,-2562,95.9,5.95,13.3,,2022-11-16 20:23:54+00:00,27.68,42.8,5.95
25.91185293,-80.13742362,20:25.9,11/16/22,9,1.268,197.0,-7.23198201,0.9,194.3,184.08,1.8,-1.15,32.9,0.0,2.93,2.94,98,29,523.7,16.4,-1.7,D,1234.4,7,16.975,1,1.06,158,181.82,-80.137429,25.91170035,0,0,1,N,0.2612678,68,68,11,116,116,181.3214,0,9999.99,2.95,3.077,2,9,28.7,0,28.70000076,42.65,1550.7933,11/16/22,11:52:40,27.69,63.3,42.65,1.139,8.3,-77.3,-3.5,-3.8,-1910,95.7,5.94,13.2,,2022-11-16 20:25:54+00:00,27.69,42.65,5.94
25.91184759,-80.13742509,20:26.9,11/16/22,8,1.141,195.63,-7.23198201,1.11,193.3,183.06,1.78,-1.54,32.9,0.0,2.85,2.86,98,29,523.7,16.4,-1.7,D,1232.3,7,16.377,1,1.07,158,181.37,-80.137429,25.91170035,0,0,1,N,0.3813694,68,68,11,117,117,180.5744,0,9999.99,2.87,2.997,2,9,28.7,0,28.70000076,42.84,1550.99339,11/16/22,11:52:41,27.67,63.54,42.84,1.119,8.3,-77.4,-3.6,-4.2,-2022,95.6,5.93,13.1,,2022-11-16 20:26:54+00:00,27.67,42.84,5.93
25.91184305,-80.13742603,20:27.9,11/16/22,9,0.807,195.63,-7.23198201,1.11,192.2,181.94,1.87,-1.54,32.9,0.0,2.79,2.79,98,29,523.7,16.4,-1.7,D,1232.3,7,15.871,1,1.06,158,181.07,-80.137429,25.91170035,0,0,1,N,0.3867487,68,68,11,119,119,180.0541,0,9999.99,2.8,2.927,2,9,28.7,0,28.70000076,42.92,1551.0776,11/16/22,11:52:42,27.71,63.66,42.92,1.118,8.3,-77.4,-3.7,-4.7,-5537,95.7,5.93,13.2,,2022-11-16 20:27:54+00:00,27.71,42.92,5.93
25.91183752,-80.13742687,20:28.9,11/16/22,8,0.963,193.15,-7.23198201,1.11,190.1,179.79,1.87,-1.19,32.9,0.0,2.65,2.65,98,29,523.7,16.4,-1.7,D,1232.3,7,15.254,1,1.07,158,180.8,-80.137429,25.91170035,0,0,1,N,0.5101107,68,68,11,126,126,179.5433,0,9999.99,2.67,2.797,2,9,28.7,0,28.70000076,42.71,1550.8562,11/16/22,11:52:43,27.67,63.38,42.71,1.116,8.3,-77.3,-3.0,-1.0,-1705,95.8,5.95,13.2,,2022-11-16 20:28:54+00:00,27.67,42.71,5.95
25.91183375,-80.13742736,20:29.9,11/16/22,8,1.06,190.34,-7.23198201,1.11,190.7,180.4,2.01,-0.99,32.9,0.0,2.54,2.55,98,29,523.7,16.4,-1.7,D,1232.3,7,14.834,1,1.07,158,180.63,-80.137429,25.91170035,0,0,1,N,0.5387893,68,68,11,123,123,179.2185,0,9999.99,2.56,2.687,2,9,28.7,0,28.70000076,42.81,1550.96184,11/16/22,11:52:44,27.7,63.51,42.81,1.11,8.3,-77.3,-3.6,-6.0,-3152,95.5,5.92,13.1,,2022-11-16 20:29:54+00:00,27.7,42.81,5.92
25.91182875,-80.13742816,20:30.9,11/16/22,9,1.243,192.39,-7.23198201,1.11,189.4,179.08,1.97,-1.95,32.8,0.0,2.42,2.43,98,29,523.6,16.4,-1.7,D,1230.1,7,14.278,1,1.08,158,180.34,-80.137429,25.91170035,0,0,1,N,0.5948685,69,69,11,125,125,178.633,0,9999.99,2.44,2.567,2,9,28.7,0,28.70000076,42.62,1550.76162,11/16/22,11:52:45,27.71,63.26,42.62,1.11,8.3,-77.2,-3.9,-6.7,-300,95.2,5.91,13.2,,2022-11-16 20:30:54+00:00,27.71,42.62,5.91
25.9118246,-80.13742884,20:31.9,11/16/22,9,0.516,192.39,-7.23198201,1.11,189.6,179.28,2.09,-1.14,32.9,0.0,2.27,2.27,98,29,523.6,16.4,-1.7,D,1230.1,7,13.816,1,1.06,158,180.07,-80.137429,25.91170035,0,0,1,N,0.6396791,70,70,11,130,130,178.1841,0,9999.99,2.29,2.417,2,9,28.7,0,28.70000076,42.78,1550.93022,11/16/22,11:52:46,27.67,63.47,42.78,1.107,8.3,-77.2,-2.9,-3.5,-3566,95.4,5.91,13.2,,2022-11-16 20:31:54+00:00,27.67,42.78,5.91
25.91180971,-80.13743064,20:34.9,11/16/22,9,1.196,188.6,-7.23198201,0.9,186.8,176.44,1.73,-1.5,32.9,0.0,1.98,1.98,98,29,523.6,16.4,-1.7,D,1235.7,7,12.161,1,1.11,158,179.23,-80.137429,25.91170035,0,0,1,N,0.7430751,67,67,11,129,129,177.4019,0,9999.99,1.99,2.117,2,9,28.7,0,28.70000076,42.74,1550.88801,11/16/22,11:52:49,27.68,63.41,42.74,1.118,8.3,-77.4,-3.7,-2.3,-3040,95.9,5.95,13.3,,2022-11-16 20:34:54+00:00,27.68,42.74,5.95
25.91180507,-80.1374314,20:35.9,11/16/22,9,0.865,188.6,-7.23198201,0.9,186.2,175.83,2.02,-1.41,32.9,0.0,1.84,1.85,98,29,523.6,16.4,-1.7,D,1235.7,7,11.647,1,1.09,158,178.82,-80.137429,25.91170035,0,0,1,N,0.7982582,69,69,11,132,132,177.0107,0,9999.99,1.86,1.987,2,9,28.7,0,28.70000076,42.69,1550.83527,11/16/22,11:52:50,27.72,63.35,42.69,1.122,8.3,-77.4,-3.7,-3.0,291,95.6,5.93,13.2,,2022-11-16 20:35:54+00:00,27.72,42.69,5.93
25.9117988,-80.13743273,20:36.9,11/16/22,9,0.895,188.6,-7.23198201,0.94,186.3,175.93,1.88,-1.46,32.9,0.0,1.76,1.77,98,29,523.6,16.4,-1.7,D,1235.7,7,10.953,1,1.12,158,178.05,-80.137429,25.91170035,0,0,1,N,0.8963845,68,68,11,129,129,176.3154,0,9999.99,1.78,1.907,2,9,28.7,0,28.70000076,42.4,1550.52979,11/16/22,11:52:51,27.68,62.97,42.4,1.11,8.3,-77.3,-3.8,-0.3,-1718,95.7,5.95,13.2,,2022-11-16 20:36:54+00:00,27.68,42.4,5.95
25.91178926,-80.13743497,20:39.0,11/16/22,9,1.225,188.6,-7.23198201,0.9,186.2,175.83,2.11,-1.68,32.9,0.0,1.55,1.55,98,28,523.6,16.4,-1.7,D,1255.5,7,9.904,1,1.07,158,176.54,-80.137429,25.91170035,0,0,1,N,1.068546,70,70,11,124,124,175.1009,0,9999.99,1.57,1.697,2,9,28.7,0,28.70000076,42.13,1550.24526,11/16/22,11:52:53,27.74,62.63,42.13,1.115,8.3,-77.1,-3.7,-4.3,-2892,95.9,5.96,13.3,,2022-11-16 20:39:00+00:00,27.74,42.13,5.96
25.91178558,-80.13743494,20:40.0,11/16/22,9,0.996,188.6,-7.23198201,0.9,186.0,175.63,1.77,-1.89,32.9,0.0,1.41,1.41,98,28,523.6,16.4,-1.7,D,1255.5,7,9.496,1,1.07,158,176.41,-80.137429,25.91170035,0,0,1,N,1.047246,68,68,11,125,125,175.2506,0,9999.99,1.43,1.557,2,9,28.7,0,28.70000076,41.68,1549.77069,11/16/22,11:52:54,27.77,62.04,41.68,1.112,8.29,-76.6,-4.2,-4.3,-2921,95.4,5.95,13.2,,2022-11-16 20:40:00+00:00,27.77,41.68,5.95
25.91177889,-80.13743611,20:41.0,11/16/22,9,0.849,188.6,-7.23198201,0.9,185.9,175.53,1.86,-1.72,32.9,0.0,1.33,1.34,98,28,523.6,16.4,-1.7,D,1237.7,7,8.762,1,1.06,158,175.35,-80.137429,25.91170035,0,0,1,N,1.127327,68,68,11,124,124,174.6879,0,9999.99,1.35,1.477,2,9,28.7,0,28.70000076,42.01,1550.11855,11/16/22,11:52:55,27.79,62.47,42.01,1.105,8.29,-76.6,-3.5,-5.4,-2659,95.4,5.93,13.3,,2022-11-16 20:41:00+00:00,27.79,42.01,5.93
25.91177682,-80.13743253,20:42.0,11/16/22,9,0.86,188.6,-7.23198201,0.9,184.6,174.22,2.12,-1.25,32.9,0.0,1.22,1.23,98,28,523.6,16.4,-1.7,D,1237.7,7,8.51,1,1.07,158,177.62,-80.137429,25.91170035,0,0,1,N,0.7624867,70,70,11,139,139,177.2646,0,9999.99,1.24,1.367,2,9,28.7,0,28.70000076,42.1,1550.21347,11/16/22,11:52:56,27.78,62.58,42.1,1.11,8.29,-76.6,-3.0,-6.1,-2558,95.2,5.92,13.1,,2022-11-16 20:42:00+00:00,27.78,42.1,5.92
25.91177189,-80.1374325,20:43.0,11/16/22,9,0.823,188.6,-7.23198201,0.9,184.9,174.52,1.75,-1.51,32.9,0.0,1.14,1.14,98,28,523.6,16.4,-1.7,D,1237.7,7,7.962,1,1.12,158,177.48,-80.137429,25.91170035,0,0,1,N,0.7346146,67,67,11,139,139,177.4622,0,9999.99,1.16,1.287,2,9,28.7,0,28.70000076,42.06,1550.17119,11/16/22,11:52:57,27.76,62.53,42.06,1.105,8.29,-76.8,-3.2,-0.9,-3376,95.1,5.92,13.2,,2022-11-16 20:43:00+00:00,27.76,42.06,5.92
25.91176919,-80.13743214,20:44.0,11/16/22,9,0.566,188.6,-7.23198201,0.9,186.1,175.73,1.98,-1.22,32.9,0.0,1.09,1.1,98,28,523.6,16.4,-1.7,D,1237.7,7,7.661,1,1.09,158,177.65,-80.137429,25.91170035,0,0,1,N,0.6846869,68,68,11,137,137,177.8169,0,9999.99,1.11,1.237,2,9,28.7,0,28.70000076,42.25,1550.3714,11/16/22,11:52:58,27.76,62.78,42.25,1.109,8.29,-76.9,-3.3,-6.2,-2753,94.9,5.9,13.3,,2022-11-16 20:44:00+00:00,27.76,42.25,5.9
25.91165012,-80.13731897,21:18.2,11/16/22,9,1.048,113.62,-7.23198201,0.9,114.6,107.35,2.09,-2.33,32.8,0.0,3.23,3.23,98,28,523.3,16.4,-1.7,D,1268.0,8,18.681,1,1.1,157,112.0,-80.13714579,25.91158718,0,0,1,N,0.6461711,70,70,11,135,135,109.3357,0,9999.99,3.25,3.377,2,9,28.6,0,28.60000038,42.07,1549.97219,11/16/22,11:53:33,27.68,62.54,42.07,1.117,8.3,-77.5,-4.0,-4.4,-3056,84.4,5.25,13.2,,2022-11-16 21:18:12+00:00,27.68,42.07,5.25
25.91164825,-80.13731345,21:19.2,11/16/22,9,1.051,113.02,-7.23198201,0.9,114.8,107.53,1.98,-2.84,32.8,0.0,3.27,3.27,98,28,523.3,16.4,-1.7,D,1277.6,8,18.092,1,1.07,157,112.05,-80.13714579,25.91158718,0,0,1,N,0.6103994,69,69,11,135,135,109.5903,0,9999.99,3.29,3.417,2,9,28.7,0,28.60000038,42.07,1549.97219,11/16/22,11:53:33,27.68,62.54,42.07,1.117,8.3,-77.5,-4.0,-4.4,-3056,84.4,5.25,13.2,,2022-11-16 21:19:12+00:00,27.68,42.07,5.25
25.9116467,-80.13730857,21:20.2,11/16/22,9,1.033,110.92,-7.23198201,0.9,114.1,106.89,2.19,-2.01,32.8,0.0,3.3,3.3,98,28,523.3,16.4,-1.7,D,1277.6,8,17.575,1,1.05,157,112.12,-80.13714579,25.91158718,0,0,1,N,0.5719301,70,70,11,139,139,109.8643,0,9999.99,3.32,3.447,2,9,28.6,0,28.70000076,42.22,1550.33966,11/16/22,11:53:34,27.7,62.74,42.22,1.113,8.3,-77.4,-2.8,-1.1,-3423,84.8,5.27,13.2,,2022-11-16 21:20:12+00:00,27.7,42.22,5.27
25.91164495,-80.13730311,21:21.2,11/16/22,9,1.028,111.16,-7.23198201,0.9,115.0,107.72,1.71,-2.48,32.8,0.0,3.32,3.33,98,28,523.3,16.4,-1.7,D,1277.6,8,16.996,1,1.04,157,112.21,-80.13714579,25.91158718,0,0,1,N,0.52424,68,68,11,137,137,110.2043,0,9999.99,3.34,3.467,2,9,28.7,0,28.60000038,41.95,1549.84546,11/16/22,11:53:35,27.7,62.39,41.95,1.123,8.3,-77.2,-3.8,-0.8,-2725,85.1,5.3,13.2,,2022-11-16 21:21:12+00:00,27.7,41.95,5.3
25.91164312,-80.13729769,21:22.2,11/16/22,9,1.054,110.54,-7.23198201,0.9,114.8,107.53,2.05,-2.0,32.9,0.0,3.35,3.35,98,28,523.2,16.4,-1.7,D,1267.9,8,16.416,1,1.07,157,112.26,-80.13714579,25.91158718,0,0,1,N,0.4908865,69,69,11,139,139,110.4422,0,9999.99,3.37,3.497,2,9,28.6,0,28.70000076,42.18,1550.29762,11/16/22,11:53:36,27.69,62.69,42.18,1.107,8.3,-77.3,-3.3,-2.3,544,85.6,5.33,13.1,,2022-11-16 21:22:12+00:00,27.69,42.18,5.33
25.91164152,-80.13729236,21:23.2,11/16/22,9,1.123,110.0,-7.23198201,0.9,115.2,107.9,1.8,-2.3,32.9,0.0,3.41,3.42,98,28,523.2,16.4,-1.7,D,1267.9,8,15.856,1,1.08,157,112.4,-80.13714579,25.91158718,0,0,1,N,0.4371406,68,68,11,139,139,110.8258,0,9999.99,3.43,3.557,2,9,28.6,0,28.60000038,41.97,1549.86665,11/16/22,11:53:38,27.67,62.42,41.97,1.132,8.3,-77.4,-3.5,-1.3,-2543,86.6,5.4,13.2,,2022-11-16 21:23:12+00:00,27.67,41.97,5.4
