latitude,longitude,time,date,number of sats,gps speed (kn),gps true heading,gps magnetic variation,hdop,c magnetic heading,c true heading,pitch angle,roll angle,c inside temp (c),dfs depth (m),dtb height (m),total water column (m),batt percent,power watts,watt-hours,batt volts,batt ampers,batt state,time to empty,current step,dist to next (m),next speed (kn),vehicle speed (kn),motor speed cmd,next heading,next long,next lat,next depth (m),depth goal (m),vehicle state,error state,distance to track (m),fin pitch r,fin pitch l,pitch goal,fin yaw t,fin yaw b,yaw goal,fin roll,dvl-depth (m),dvl -altitude (m),dvl -water column (m),dvl-fixtype,dvl-fixquality,dvl-temperature,conductivity (mmhos/cm),temperature (c),salinity (ppt),sound speed (m/s),date m/d/y,time hh:mm:ss,temp c,spcond ms/cm,sal ppt,depth feet,ph,ph mv,turbid+ ntu,chl ug/l,bga-pc cells/ml,odosat %,odo mg/l,battery volts,rosem command type,timestamp,temperature,salinity,odo
25.88168487,-80.14620356,00:00.1,10/21/21,10,1.151,37.8,-7.117706431,0.9,54.3,50.01,0.08,-1.34,36.6,0.0,3.41,3.42,92,24,510.3,16.2,-1.4,D,1419.3,0,253.704,1,1.02,153,43.15,-80.14446913,25.88334941,0,0,1,N,0.8147625,57,57,11,122,122,48.77375,0,9999.99,3.43,3.557,2,9,29.5,0,29.5,46.52,1556.50371,10/21/21,10:36:12,26.72,68.26,46.52,1.197,7.93,-55.4,-5.2,-8.9,-7021,94.2,5.81,12.8,,2021-10-21 00:00:06+00:00,26.72,46.52,5.81
25.88169097,-80.14619643,00:02.1,10/21/21,10,0.949,37.8,-7.117706431,0.9,56.1,51.79,2.84,-3.16,36.5,0.01,3.43,3.45,92,24,510.3,16.2,-1.5,D,1407.1,0,252.721,1,1.0,153,43.14,-80.14446913,25.88334941,0,0,1,N,0.7599415,65,65,11,106,106,48.38483,0,9999.99,3.43,3.557,2,9,29.5,0,29.5,45.12,1555.0352,10/21/21,10:36:15,26.7,66.47,45.12,1.367,7.93,-55.3,-4.2,-0.4,60960,94.0,5.85,13.0,,2021-10-21 00:02:06+00:00,26.7,45.12,5.85
25.88169522,-80.14619457,00:03.1,10/21/21,10,1.048,37.8,-7.117706431,0.9,59.1,54.75,-3.01,-5.8,36.6,0.01,3.38,3.4,92,24,510.3,16.2,-1.5,D,1407.1,0,252.25,1,0.95,153,43.18,-80.14446913,25.88334941,0,0,1,N,0.9453095,43,43,11,108,108,49.69751,0,9999.99,3.41,3.537,2,9,29.5,0,29.5,45.12,1555.0352,10/21/21,10:36:15,26.7,66.47,45.12,1.367,7.93,-55.3,-4.2,-0.4,60960,94.0,5.85,13.0,,2021-10-21 00:03:06+00:00,26.7,45.12,5.85
25.88169738,-80.14618965,00:04.1,10/21/21,10,1.067,37.8,-7.117706431,0.9,58.1,53.77,3.22,2.75,36.6,0.02,3.37,3.38,92,24,510.3,16.2,-1.5,D,1396.9,0,251.737,1,0.99,153,43.14,-80.14446913,25.88334941,0,0,1,N,0.7511373,76,76,11,105,105,48.32219,0,9999.99,3.34,3.467,2,9,29.5,0,29.5,46.54,1556.52615,10/21/21,10:36:17,26.7,68.29,46.54,1.335,7.93,-55.2,-3.9,1.5,27007,93.8,5.79,13.0,,2021-10-21 00:04:06+00:00,26.7,46.54,5.79
25.88170042,-80.14618561,00:05.1,10/21/21,10,0.961,37.8,-7.117706431,0.9,58.8,54.46,1.62,-6.0,36.6,0.0,3.37,3.37,92,24,510.3,16.2,-1.5,D,1396.9,0,251.214,1,0.97,153,43.12,-80.14446913,25.88334941,0,0,1,N,0.6894781,67,67,11,101,101,47.88412,0,9999.99,3.39,3.517,2,9,29.5,0,29.5,46.54,1556.52615,10/21/21,10:36:17,26.7,68.29,46.54,1.335,7.93,-55.2,-3.9,1.5,27007,93.8,5.79,13.0,,2021-10-21 00:05:06+00:00,26.7,46.54,5.79
25.88170287,-80.14618226,00:06.1,10/21/21,10,0.986,37.8,-7.117706431,0.9,57.0,52.68,0.21,-2.39,36.6,0.0,3.39,3.4,92,24,510.3,16.2,-1.5,D,1396.9,0,250.787,1,0.93,153,43.11,-80.14446913,25.88334941,0,0,1,N,0.6228827,57,57,11,108,108,47.41031,0,9999.99,3.41,3.537,2,9,29.5,0,29.5,45.86,1555.81111,10/21/21,10:36:19,26.72,67.41,45.86,1.154,7.93,-55.1,-4.3,12.0,111413,93.7,5.8,12.9,,2021-10-21 00:06:06+00:00,26.72,45.86,5.8
25.88170707,-80.14617874,00:07.1,10/21/21,10,1.091,38.69,-7.117706431,0.9,59.8,55.44,1.42,1.05,36.6,0.0,3.38,3.38,92,24,510.3,16.2,-1.5,D,1396.9,0,250.205,1,0.94,153,43.12,-80.14446913,25.88334941,0,0,1,N,0.6892556,67,67,11,97,97,47.88251,0,9999.99,3.38,3.507,2,9,29.5,0,29.5,45.86,1555.81111,10/21/21,10:36:19,26.72,67.41,45.86,1.154,7.93,-55.1,-4.3,12.0,111413,93.7,5.8,12.9,,2021-10-21 00:07:06+00:00,26.72,45.86,5.8
25.88171127,-80.14617466,00:08.1,10/21/21,10,0.863,38.69,-7.117706431,0.9,56.7,52.38,0.59,0.62,36.5,0.0,3.43,3.43,92,24,510.3,16.2,-1.5,D,1397.7,0,249.585,1,0.94,153,43.13,-80.14446913,25.88334941,0,0,1,N,0.7033569,61,61,11,109,109,47.98267,0,9999.99,3.44,3.567,2,9,29.5,0,29.5,46.49,1556.47223,10/21/21,10:36:20,26.72,68.23,46.49,1.158,7.93,-55.2,-5.6,33.2,123778,93.6,5.77,12.8,,2021-10-21 00:08:06+00:00,26.72,46.49,5.77
25.88172047,-80.14616519,00:11.1,10/21/21,10,1.028,38.69,-7.117706431,0.9,53.6,49.31,2.43,-4.21,36.5,0.0,3.4,3.4,92,24,510.2,16.2,-1.5,D,1390.4,0,248.191,1,0.94,153,43.13,-80.14446913,25.88334941,0,0,1,N,0.7016775,72,72,11,122,122,47.97071,0,9999.99,3.42,3.547,2,9,29.5,0,29.5,46.46,1556.44069,10/21/21,10:36:23,26.71,68.18,46.46,1.232,7.93,-55.0,-5.2,-5.0,9336,93.6,5.78,13.0,,2021-10-21 00:11:06+00:00,26.71,46.46,5.78
25.88172342,-80.14616288,00:12.1,10/21/21,10,0.835,38.69,-7.117706431,0.9,53.7,49.41,-2.32,-8.3,36.5,0.02,3.49,3.5,92,24,510.2,16.2,-1.5,D,1390.4,0,247.794,1,0.98,153,43.14,-80.14446913,25.88334941,0,0,1,N,0.7543426,43,43,11,123,123,48.34484,0,9999.99,3.51,3.637,2,9,29.5,0,29.5,42.14,1551.90948,10/21/21,10:36:24,26.72,62.6,42.14,1.214,7.93,-55.0,-3.3,-2.4,1285,93.5,5.91,12.9,,2021-10-21 00:12:06+00:00,26.72,42.14,5.91
25.88172652,-80.14615954,00:13.1,10/21/21,10,0.892,38.69,-7.117706431,0.9,54.9,50.6,2.03,-4.89,36.4,0.01,3.41,3.42,92,24,510.2,16.2,-1.5,D,1390.4,0,247.313,1,0.99,153,43.14,-80.14446913,25.88334941,0,0,1,N,0.7473221,69,69,11,118,118,48.2949,0,9999.99,3.39,3.517,2,9,29.5,0,29.5,46.49,1556.47382,10/21/21,10:36:26,26.7,68.22,46.49,1.305,7.93,-54.9,-4.7,-4.2,1069,93.5,5.77,12.9,,2021-10-21 00:13:06+00:00,26.7,46.49,5.77
25.88172799,-80.1461558,00:14.2,10/21/21,10,0.869,38.69,-7.117706431,0.9,56.0,51.69,-1.23,-5.35,36.5,0.01,3.42,3.44,92,24,510.2,16.2,-1.5,D,1390.4,0,246.939,1,0.98,153,43.1,-80.14446913,25.88334941,0,0,1,N,0.5839015,50,50,11,109,109,47.13251,0,9999.99,3.44,3.567,2,9,29.5,0,29.5,46.49,1556.47382,10/21/21,10:36:26,26.7,68.22,46.49,1.305,7.93,-54.9,-4.7,-4.2,1069,93.5,5.77,12.9,,2021-10-21 00:14:12+00:00,26.7,46.49,5.77
25.88173216,-80.14615248,00:15.2,10/21/21,10,0.975,38.69,-7.117706431,0.9,57.1,52.78,1.03,0.73,36.5,0.01,3.4,3.41,92,24,510.2,16.2,-1.5,D,1393.9,0,246.373,1,0.97,153,43.12,-80.14446913,25.88334941,0,0,1,N,0.6609875,63,63,11,107,107,47.68137,0,9999.99,3.39,3.517,2,9,29.4,0,29.39999962,46.49,1556.27208,10/21/21,10:36:28,26.69,68.22,46.49,1.19,7.93,-54.9,-5.1,110.8,113904,93.5,5.77,12.8,,2021-10-21 00:15:12+00:00,26.69,46.49,5.77
25.88173654,-80.14615134,00:16.2,10/21/21,10,1.09,38.69,-7.117706431,0.9,54.7,50.4,1.45,-9.0,36.5,0.01,3.47,3.47,92,24,510.2,16.2,-1.5,D,1393.9,0,245.939,1,0.95,153,43.18,-80.14446913,25.88334941,0,0,1,N,0.9078944,69,69,11,123,123,49.43269,0,9999.99,3.47,3.597,2,9,29.4,0,29.39999962,46.49,1556.27208,10/21/21,10:36:28,26.69,68.22,46.49,1.19,7.93,-54.9,-5.1,110.8,113904,93.5,5.77,12.8,,2021-10-21 00:16:12+00:00,26.69,46.49,5.77
25.88173897,-80.14614639,00:17.2,10/21/21,10,1.063,38.69,-7.117706431,0.9,60.5,56.13,0.81,2.99,36.5,0.01,3.45,3.46,92,24,510.2,16.2,-1.5,D,1393.9,0,245.403,1,0.96,153,43.14,-80.14446913,25.88334941,0,0,1,N,0.7310406,62,62,11,95,95,48.17919,0,9999.99,3.46,3.587,2,9,29.4,0,29.39999962,30.07,1539.06183,10/21/21,10:36:29,26.69,46.4,30.07,1.292,7.93,-55.0,-4.8,34.6,85317,93.3,6.32,12.9,,2021-10-21 00:17:12+00:00,26.69,30.07,6.32
25.88174197,-80.14614304,00:18.2,10/21/21,10,0.987,38.69,-7.117706431,0.9,56.6,52.29,0.7,0.32,36.5,0.0,3.41,3.42,92,24,510.2,16.2,-1.5,D,1411.5,0,244.931,1,0.97,153,43.13,-80.14446913,25.88334941,0,0,1,N,0.7156619,61,61,11,110,110,48.06998,0,9999.99,3.42,3.547,2,9,29.4,0,29.39999962,46.48,1556.26063,10/21/21,10:36:31,26.7,68.21,46.48,1.172,7.92,-54.8,-5.7,48.1,94208,93.1,5.75,12.9,,2021-10-21 00:18:12+00:00,26.7,46.48,5.75
25.88174423,-80.14613993,00:19.2,10/21/21,10,0.755,38.69,-7.117706431,0.9,58.1,53.77,0.56,-2.77,36.5,0.0,3.46,3.46,92,24,510.2,16.2,-1.5,D,1411.5,0,244.535,1,0.92,153,43.12,-80.14446913,25.88334941,0,0,1,N,0.6601532,60,60,11,103,103,47.67527,0,9999.99,3.47,3.597,2,9,29.4,0,29.39999962,46.48,1556.26016,10/21/21,10:36:32,26.71,68.21,46.48,1.227,7.92,-54.8,-4.1,-4.4,20370,93.1,5.74,12.9,,2021-10-21 00:19:12+00:00,26.71,46.48,5.74
25.88174657,-80.14613695,00:20.2,10/21/21,10,1.037,43.58,-7.117706431,0.9,54.8,50.5,1.88,-7.8,36.5,0.0,3.4,3.41,92,24,510.2,16.2,-1.5,D,1411.5,0,244.142,1,0.92,153,43.11,-80.14446913,25.88334941,0,0,1,N,0.6141359,63,63,11,120,120,47.34775,0,9999.99,3.42,3.547,2,9,29.4,0,29.39999962,46.48,1556.26016,10/21/21,10:36:32,26.71,68.21,46.48,1.227,7.92,-54.8,-4.1,-4.4,20370,93.1,5.74,12.9,,2021-10-21 00:20:12+00:00,26.71,46.48,5.74
25.88174972,-80.14613341,00:21.2,10/21/21,10,1.024,43.58,-7.117706431,0.9,54.2,49.91,1.37,-5.38,36.5,0.0,3.46,3.46,92,24,510.2,16.2,-1.5,D,1411.5,0,243.644,1,0.89,153,43.11,-80.14446913,25.88334941,0,0,1,N,0.5910741,67,67,11,122,122,47.18345,0,9999.99,3.47,3.597,2,9,29.4,0,29.39999962,44.83,1554.5279,10/21/21,10:36:33,26.7,66.09,44.83,1.335,7.92,-54.7,-2.4,9.5,14476,93.1,5.8,12.9,,2021-10-21 00:21:12+00:00,26.7,44.83,5.8
25.88175239,-80.14612896,00:22.3,10/21/21,10,0.961,43.58,-7.117706431,0.9,56.6,52.29,2.24,-4.12,36.5,0.01,3.41,3.42,92,24,510.2,16.2,-1.5,D,1406.8,0,243.123,1,0.91,153,43.08,-80.14446913,25.88334941,0,0,1,N,0.4703918,70,70,11,103,103,46.32287,0,9999.99,3.43,3.557,2,9,29.4,0,29.39999962,46.14,1555.90325,10/21/21,10:36:35,26.71,67.77,46.14,1.135,7.92,-54.8,-4.8,-4.3,1911,93.0,5.75,12.9,,2021-10-21 00:22:18+00:00,26.71,46.14,5.75
25.88175612,-80.14612307,00:23.3,10/21/21,10,1.017,51.63,-7.117706431,0.9,54.4,50.11,2.73,-6.29,36.6,0.01,3.44,3.44,92,24,510.2,16.2,-1.5,D,1406.8,0,242.418,1,0.9,153,43.04,-80.14446913,25.88334941,0,0,1,N,0.3208484,73,73,11,108,108,45.25452,0,9999.99,3.46,3.587,2,9,29.4,0,29.39999962,46.21,1555.97721,10/21/21,10:36:36,26.71,67.87,46.21,1.155,7.92,-54.8,-4.3,-3.2,776,93.0,5.75,12.8,,2021-10-21 00:23:18+00:00,26.71,46.21,5.75
25.88175979,-80.14612023,00:24.3,10/21/21,10,1.038,51.63,-7.117706431,0.9,55.2,50.9,0.51,-5.02,36.5,0.01,3.47,3.48,92,24,510.2,16.2,-1.5,D,1406.8,0,241.925,1,0.9,153,43.06,-80.14446913,25.88334941,0,0,1,N,0.3933874,57,57,11,99,99,45.77296,0,9999.99,3.47,3.597,2,9,29.4,0,29.39999962,46.21,1555.97721,10/21/21,10:36:36,26.71,67.87,46.21,1.155,7.92,-54.8,-4.3,-3.2,776,93.0,5.75,12.8,,2021-10-21 00:24:18+00:00,26.71,46.21,5.75
25.88176295,-80.14611595,00:25.3,10/21/21,10,0.998,51.63,-7.117706431,0.9,56.8,52.48,1.84,-0.24,36.6,0.0,3.42,3.42,92,24,510.2,16.2,-1.5,D,1394.6,0,241.376,1,0.94,154,43.04,-80.14446913,25.88334941,0,0,1,N,0.3219901,68,68,11,98,98,45.2626,0,9999.99,3.43,3.557,2,9,29.4,0,29.39999962,46.47,1556.25018,10/21/21,10:36:38,26.7,68.19,46.47,1.198,7.92,-54.5,-4.1,11.2,7419,93.1,5.74,12.9,,2021-10-21 00:25:18+00:00,26.7,46.47,5.74
25.88176644,-80.1461129,00:26.3,10/21/21,10,0.838,51.63,-7.117706431,0.9,53.7,49.41,-0.24,-2.14,36.5,0.01,3.44,3.45,92,24,510.2,16.2,-1.5,D,1394.6,0,240.884,1,0.93,154,43.05,-80.14446913,25.88334941,0,0,1,N,0.3578777,56,56,11,111,111,45.51916,0,9999.99,3.45,3.577,2,9,29.4,0,29.39999962,46.47,1556.25018,10/21/21,10:36:38,26.7,68.19,46.47,1.198,7.92,-54.5,-4.1,11.2,7419,93.1,5.74,12.9,,2021-10-21 00:26:18+00:00,26.7,46.47,5.74
25.88176946,-80.14611009,00:27.3,10/21/21,10,0.97,51.63,-7.117706431,0.9,54.4,50.11,2.01,-1.85,36.5,0.01,3.43,3.44,92,24,510.2,16.2,-1.5,D,1394.6,0,240.447,1,0.95,154,43.06,-80.14446913,25.88334941,0,0,1,N,0.3803724,71,71,11,110,110,45.67995,0,9999.99,3.45,3.577,2,9,29.4,0,29.39999962,46.42,1556.19766,10/21/21,10:36:39,26.71,68.13,46.42,1.183,7.92,-54.6,-4.5,-2.5,22126,93.0,5.74,13.0,,2021-10-21 00:27:18+00:00,26.71,46.42,5.74
25.88177227,-80.14610622,00:28.4,10/21/21,10,0.906,51.63,-7.117706431,0.9,57.1,52.78,2.09,-0.79,36.5,0.01,3.46,3.47,92,24,510.2,16.2,-1.5,D,1394.6,0,239.954,1,0.97,154,43.04,-80.14446913,25.88334941,0,0,1,N,0.3157822,70,70,11,97,97,45.21813,0,9999.99,3.48,3.607,2,9,29.4,0,29.39999962,38.32,1547.6998,10/21/21,10:36:40,26.71,57.56,38.32,1.341,7.92,-54.6,-4.6,-2.4,-2018,93.0,6.01,12.8,,2021-10-21 00:28:24+00:00,26.71,38.32,6.01
25.88177448,-80.1461033,00:29.4,10/21/21,10,1.019,51.63,-7.117706431,0.9,55.9,51.59,0.67,-0.32,36.5,0.01,3.46,3.47,92,24,510.1,16.2,-1.5,D,1388.3,0,239.575,1,0.97,154,43.03,-80.14446913,25.88334941,0,0,1,N,0.264452,61,61,11,105,105,44.85099,0,9999.99,3.47,3.597,2,9,29.4,0,29.39999962,46.44,1556.21861,10/21/21,10:36:42,26.72,68.16,46.44,1.168,7.92,-54.5,-5.2,-3.0,52939,92.9,5.73,12.9,,2021-10-21 00:29:24+00:00,26.72,46.44,5.73
25.88177684,-80.14609995,00:30.4,10/21/21,10,0.825,51.63,-7.117706431,0.9,50.0,45.73,1.03,-6.98,36.5,0.01,3.43,3.44,92,24,510.1,16.2,-1.5,D,1388.3,0,239.155,1,0.95,154,43.02,-80.14446913,25.88334941,0,0,1,N,0.1921676,63,63,11,121,121,44.33364,0,9999.99,3.44,3.567,2,9,29.4,0,29.39999962,46.44,1556.21861,10/21/21,10:36:42,26.72,68.16,46.44,1.168,7.92,-54.5,-5.2,-3.0,52939,92.9,5.73,12.9,,2021-10-21 00:30:24+00:00,26.72,46.44,5.73
25.88178026,-80.14609543,00:31.4,10/21/21,10,1.2,51.63,-7.117706431,0.9,52.0,47.72,2.12,-1.62,36.5,0.01,3.47,3.48,92,24,510.1,16.2,-1.5,D,1405.6,0,238.568,1,0.96,154,43.0,-80.14446913,25.88334941,0,0,1,N,0.1268445,70,70,11,112,112,43.86596,0,9999.99,3.49,3.617,2,9,29.4,0,29.39999962,46.42,1556.19783,10/21/21,10:36:43,26.7,68.13,46.42,1.185,7.92,-54.5,-5.5,-8.6,4101,93.0,5.74,12.9,,2021-10-21 00:31:24+00:00,26.7,46.42,5.74
25.88178296,-80.14609233,00:32.4,10/21/21,10,0.798,51.63,-7.117706431,0.9,48.2,43.93,1.2,-5.92,36.5,0.01,3.5,3.51,92,24,510.1,16.2,-1.5,D,1405.6,0,238.137,1,0.93,154,42.99,-80.14446913,25.88334941,0,0,1,N,0.0993,64,64,11,126,126,43.6688,0,9999.99,3.5,3.627,2,9,29.4,0,29.39999962,14.89,1523.21466,10/21/21,10:36:45,26.72,24.57,14.89,1.156,7.92,-54.5,-6.3,-2.1,57589,92.9,6.85,12.9,,2021-10-21 00:32:24+00:00,26.72,14.89,6.85
25.88178539,-80.14608881,00:33.4,10/21/21,10,1.083,51.63,-7.117706431,0.9,52.8,48.52,0.27,-6.17,36.5,0.01,3.43,3.43,92,24,510.1,16.2,-1.5,D,1405.6,0,237.699,1,0.97,154,42.97,-80.14446913,25.88334941,0,0,1,N,0.0391,56,56,11,93,93,43.23784,0,9999.99,3.42,3.547,2,9,29.4,0,29.39999962,14.89,1523.21466,10/21/21,10:36:45,26.72,24.57,14.89,1.156,7.92,-54.5,-6.3,-2.1,57589,92.9,6.85,12.9,,2021-10-21 00:33:24+00:00,26.72,14.89,6.85
25.88178993,-80.14608696,00:34.4,10/21/21,10,0.699,51.63,-7.117706431,0.9,54.1,49.81,1.74,2.89,36.4,0.01,3.39,3.4,92,25,510.1,16.2,-1.5,D,1372.0,0,237.204,1,0.91,154,43.03,-80.14446913,25.88334941,0,0,1,N,0.2429775,67,67,11,107,107,44.69718,0,9999.99,3.41,3.537,2,9,29.4,0,29.39999962,46.45,1556.22914,10/21/21,10:36:47,26.7,68.17,46.45,1.259,7.92,-54.4,-3.8,-6.6,54894,93.0,5.74,12.9,,2021-10-21 00:34:24+00:00,26.7,46.45,5.74
25.88179325,-80.1460843,00:35.4,10/21/21,10,1.045,51.63,-7.117706431,0.9,51.1,46.82,1.53,-8.2,36.4,0.01,3.44,3.45,92,25,510.1,16.2,-1.5,D,1372.0,0,236.753,1,0.97,154,43.04,-80.14446913,25.88334941,0,0,1,N,0.2950632,66,66,11,120,120,45.06986,0,9999.99,3.45,3.577,2,9,29.4,0,29.39999962,46.45,1556.22914,10/21/21,10:36:47,26.7,68.17,46.45,1.259,7.92,-54.4,-3.8,-6.6,54894,93.0,5.74,12.9,,2021-10-21 00:35:24+00:00,26.7,46.45,5.74
25.88179608,-80.14608106,00:36.4,10/21/21,10,0.85,51.63,-7.117706431,0.9,50.4,46.12,2.11,-2.72,36.4,0.01,3.41,3.41,92,25,510.1,16.2,-1.5,D,1372.0,0,236.302,1,0.95,154,43.03,-80.14446913,25.88334941,0,0,1,N,0.275096,70,70,11,122,122,44.92704,0,9999.99,3.42,3.547,2,9,29.4,0,29.39999962,36.49,1545.78217,10/21/21,10:36:48,26.72,55.12,36.49,1.122,7.92,-54.3,-5.1,-5.7,13648,93.0,6.07,12.8,,2021-10-21 00:36:24+00:00,26.72,36.49,6.07
25.88179908,-80.14607806,00:37.4,10/21/21,10,1.042,51.63,-7.117706431,0.9,48.8,44.53,2.39,-3.49,36.4,0.01,3.48,3.49,92,25,510.1,16.2,-1.5,D,1372.0,0,235.852,1,0.98,154,43.04,-80.14446913,25.88334941,0,0,1,N,0.2813346,69,69,11,119,119,44.97159,0,9999.99,3.5,3.627,2,9,29.3,0,29.39999962,23.86,1532.57156,10/21/21,10:36:50,26.72,37.7,23.86,1.136,7.92,-54.4,-3.9,-3.9,-1712,93.0,6.51,13.0,,2021-10-21 00:37:24+00:00,26.72,23.86,6.51
25.88180648,-80.1460728,00:39.4,10/21/21,10,0.842,51.63,-7.117706431,0.9,47.1,42.83,0.25,-0.27,36.4,0.01,3.45,3.46,92,24,510.1,16.2,-1.5,D,1398.2,0,234.893,1,0.94,154,43.08,-80.14446913,25.88334941,0,0,1,N,0.4525981,59,59,11,140,140,46.19552,0,9999.99,3.46,3.587,2,9,29.4,0,29.39999962,46.43,1556.20773,10/21/21,10:36:52,26.71,68.14,46.43,1.23,7.92,-54.3,-3.7,-8.2,-4993,92.9,5.73,12.8,,2021-10-21 00:39:24+00:00,26.71,46.43,5.73
25.88180916,-80.14607007,00:40.4,10/21/21,10,0.806,51.63,-7.117706431,0.9,50.7,46.42,1.6,-5.69,36.5,0.01,3.44,3.44,92,24,510.1,16.2,-1.5,D,1398.2,0,234.488,1,0.96,154,43.08,-80.14446913,25.88334941,0,0,1,N,0.4600038,68,68,11,133,133,46.24838,0,9999.99,3.45,3.577,2,9,29.3,0,29.39999962,46.43,1556.20773,10/21/21,10:36:52,26.71,68.14,46.43,1.23,7.92,-54.3,-3.7,-8.2,-4993,92.9,5.73,12.8,,2021-10-21 00:40:24+00:00,26.71,46.43,5.73
25.88181145,-80.14606783,00:41.4,10/21/21,10,0.92,51.63,-7.117706431,0.9,53.7,49.41,0.79,3.55,36.4,0.01,3.46,3.46,92,24,510.1,16.2,-1.5,D,1390.7,0,234.149,1,0.97,154,43.08,-80.14446913,25.88334941,0,0,1,N,0.4701622,59,59,11,125,125,46.32088,0,9999.99,3.46,3.587,2,9,29.3,0,29.29999924,39.56,1548.79244,10/21/21,10:36:53,26.69,59.2,39.56,1.279,7.91,-54.2,-4.8,1.0,-698,92.8,5.96,12.9,,2021-10-21 00:41:24+00:00,26.69,39.56,5.96
25.88181481,-80.14606371,00:42.4,10/21/21,10,0.903,51.63,-7.117706431,0.9,51.4,47.12,0.78,-3.89,36.4,0.0,3.44,3.44,92,24,510.1,16.2,-1.5,D,1390.7,0,233.594,1,0.94,154,43.07,-80.14446913,25.88334941,0,0,1,N,0.4232619,62,62,11,122,122,45.98603,0,9999.99,3.45,3.577,2,9,29.3,0,29.29999924,46.43,1556.0057,10/21/21,10:36:55,26.7,68.14,46.43,1.23,7.91,-54.2,-3.1,-3.2,14505,92.8,5.73,12.9,,2021-10-21 00:42:24+00:00,26.7,46.43,5.73
25.88181959,-80.14606028,00:43.4,10/21/21,10,1.151,51.63,-7.117706431,0.9,49.9,45.63,1.3,-0.98,36.4,0.0,3.41,3.41,92,24,510.1,16.2,-1.5,D,1390.7,0,232.971,1,0.99,154,43.1,-80.14446913,25.88334941,0,0,1,N,0.5372932,68,68,11,121,121,46.79984,0,9999.99,3.43,3.557,2,9,29.3,0,29.29999924,43.82,1553.26384,10/21/21,10:36:56,26.7,64.78,43.82,1.231,7.91,-54.2,-5.4,-2.4,9694,92.9,5.82,12.9,,2021-10-21 00:43:24+00:00,26.7,43.82,5.82
25.88182458,-80.14605772,00:44.4,10/21/21,10,0.958,51.63,-7.117706431,0.9,46.9,42.63,2.16,-9.5,36.4,0.01,3.42,3.42,92,24,510.1,16.2,-1.5,D,1390.7,0,232.391,1,0.97,154,43.15,-80.14446913,25.88334941,0,0,1,N,0.7185371,70,70,11,149,149,48.08992,0,9999.99,3.42,3.547,2,9,29.3,0,29.29999924,5.59,1513.30339,10/21/21,10:36:57,26.71,9.957,5.59,1.178,7.91,-54.1,-6.4,-7.8,110666,92.8,7.21,12.9,,2021-10-21 00:44:24+00:00,26.71,5.59,7.21
25.8818285,-80.14605602,00:45.4,10/21/21,10,1.056,51.63,-7.117706431,0.9,55.5,51.2,-1.22,-1.65,36.4,0.01,3.42,3.43,92,25,510.0,16.2,-1.5,D,1371.8,0,231.957,1,1.0,154,43.19,-80.14446913,25.88334941,0,0,1,N,0.9039226,50,50,11,120,120,49.40413,0,9999.99,3.41,3.537,2,9,29.3,0,29.29999924,46.22,1555.78536,10/21/21,10:36:58,26.69,67.87,46.22,1.091,7.91,-54.1,-3.8,-1.5,92807,92.8,5.74,13.0,,2021-10-21 00:45:24+00:00,26.69,46.22,5.74
25.88183288,-80.14605384,00:46.5,10/21/21,10,0.845,51.63,-7.117706431,0.9,57.5,53.18,0.5,-2.28,36.4,0.01,3.32,3.33,92,25,510.0,16.2,-1.5,D,1371.8,0,231.453,1,0.96,154,43.23,-80.14446913,25.88334941,0,0,1,N,1.076266,60,60,11,117,117,50.61974,0,9999.99,3.33,3.457,2,9,29.3,0,29.29999924,46.44,1556.01648,10/21/21,10:36:59,26.69,68.16,46.44,1.434,7.91,-54.1,-4.7,-4.8,5724,92.8,5.73,12.9,,2021-10-21 00:46:30+00:00,26.69,46.44,5.73
25.88183582,-80.14605185,00:47.5,10/21/21,10,0.629,51.63,-7.117706431,0.9,54.9,50.6,1.34,-3.44,36.5,0.01,3.43,3.43,92,25,510.0,16.2,-1.5,D,1371.8,0,231.079,1,0.94,154,43.25,-80.14446913,25.88334941,0,0,1,N,1.150327,65,65,11,129,129,51.1402,0,9999.99,3.44,3.567,2,9,29.3,0,29.29999924,46.42,1555.99544,10/21/21,10:37:00,26.7,68.13,46.42,1.242,7.91,-54.1,-4.8,0.3,17921,92.8,5.73,12.8,,2021-10-21 00:47:30+00:00,26.7,46.42,5.73
25.88183961,-80.14604896,00:48.5,10/21/21,10,0.861,51.63,-7.117706431,0.9,55.0,50.7,-0.79,-1.4,36.5,0.01,3.38,3.38,92,24,510.0,16.2,-1.5,D,1383.4,0,230.573,1,0.94,154,43.27,-80.14446913,25.88334941,0,0,1,N,1.225221,52,52,11,131,131,51.66505,0,9999.99,3.39,3.517,2,9,29.3,0,29.29999924,46.39,1555.9639,10/21/21,10:37:01,26.71,68.09,46.39,1.248,7.91,-54.1,-4.2,-7.9,4029,92.9,5.73,12.9,,2021-10-21 00:48:30+00:00,26.71,46.39,5.73
25.88184254,-80.1460441,00:49.5,10/21/21,10,1.146,41.64,-7.117706431,0.9,49.0,44.73,2.51,-2.7,36.5,0.01,3.4,3.41,92,25,510.0,16.2,-1.5,D,1368.2,0,230.003,1,0.95,154,43.24,-80.14446913,25.88334941,0,0,1,N,1.081385,77,77,11,149,149,50.6558,0,9999.99,3.43,3.557,2,9,29.3,0,29.29999924,45.42,1554.94472,10/21/21,10:37:02,26.68,66.84,45.42,1.376,7.91,-54.0,-5.1,19.3,5766,92.8,5.77,12.9,,2021-10-21 00:49:30+00:00,26.68,45.42,5.77
25.88184731,-80.14603436,00:51.5,10/21/21,10,0.745,41.64,-7.117706431,0.9,50.7,46.42,-0.38,-3.45,36.4,0.01,3.44,3.45,92,25,510.0,16.2,-1.5,D,1368.2,0,228.95,1,0.94,154,43.15,-80.14446913,25.88334941,0,0,1,N,0.7392219,55,55,11,134,134,48.23669,0,9999.99,3.45,3.577,2,9,29.3,0,29.29999924,46.43,1556.00597,10/21/21,10:37:04,26.67,68.15,46.43,1.251,7.91,-53.8,-4.4,32.5,31127,92.7,5.72,12.9,,2021-10-21 00:51:30+00:00,26.67,46.43,5.72
25.88185252,-80.1460325,00:52.5,10/21/21,10,1.249,41.64,-7.117706431,0.9,52.0,47.72,1.36,-3.87,36.4,0.01,3.37,3.37,92,25,510.0,16.2,-1.5,D,1360.3,0,228.4,1,0.96,154,43.22,-80.14446913,25.88334941,0,0,1,N,0.9964216,65,65,11,136,136,50.05722,0,9999.99,3.38,3.507,2,9,29.3,0,29.29999924,46.41,1555.98506,10/21/21,10:37:05,26.69,68.12,46.41,1.281,7.91,-53.9,-5.2,50.5,52919,92.6,5.72,13.0,,2021-10-21 00:52:30+00:00,26.69,46.41,5.72
25.88185517,-80.14602824,00:53.5,10/21/21,10,0.927,41.64,-7.117706431,0.9,58.2,53.87,1.32,-1.96,36.5,0.01,3.34,3.35,92,25,510.0,16.2,-1.5,D,1360.3,0,227.893,1,0.96,154,43.19,-80.14446913,25.88334941,0,0,1,N,0.8966494,63,63,11,107,107,49.35247,0,9999.99,3.35,3.477,2,9,29.3,0,29.29999924,42.13,1551.48978,10/21/21,10:37:06,26.69,62.59,42.13,1.2,7.91,-53.8,5.5,83.9,163807,92.7,5.86,13.0,,2021-10-21 00:53:30+00:00,26.69,42.13,5.86
25.88185841,-80.14602514,00:54.5,10/21/21,10,0.86,41.64,-7.117706431,0.9,52.7,48.42,0.54,0.24,36.4,0.0,3.47,3.47,92,25,510.0,16.2,-1.5,D,1360.3,0,227.418,1,0.93,154,43.2,-80.14446913,25.88334941,0,0,1,N,0.9036242,60,60,11,131,131,49.40181,0,9999.99,3.48,3.607,2,9,29.3,0,29.29999924,46.41,1555.98464,10/21/21,10:37:07,26.7,68.11,46.41,1.192,7.91,-53.8,-3.0,-0.1,-1822,92.7,5.72,12.8,,2021-10-21 00:54:30+00:00,26.7,46.41,5.72
25.88186245,-80.14602008,00:55.5,10/21/21,10,1.228,41.64,-7.117706431,0.9,52.7,48.42,2.71,-10.1,36.3,0.0,3.35,3.35,92,25,510.0,16.2,-1.5,D,1360.3,0,226.744,1,0.98,154,43.18,-80.14446913,25.88334941,0,0,1,N,0.8422065,73,73,11,129,129,48.96711,0,9999.99,3.36,3.487,2,9,29.3,0,29.29999924,46.06,1555.61684,10/21/21,10:37:08,26.7,67.66,46.06,1.26,7.91,-53.8,-2.9,25.7,104368,92.5,5.72,12.9,,2021-10-21 00:55:30+00:00,26.7,46.06,5.72
25.88186605,-80.14601658,00:56.5,10/21/21,10,0.903,41.64,-7.117706431,0.9,55.3,51.0,0.55,-0.55,36.4,0.01,3.45,3.45,92,24,510.0,16.2,-1.5,D,1389.6,0,226.212,1,0.97,154,43.18,-80.14446913,25.88334941,0,0,1,N,0.859809,60,60,11,119,119,49.09178,0,9999.99,3.45,3.577,2,9,29.3,0,29.29999924,46.4,1555.97444,10/21/21,10:37:09,26.7,68.1,46.4,1.166,7.91,-53.8,-3.3,1.2,76037,92.4,5.7,12.9,,2021-10-21 00:56:30+00:00,26.7,46.4,5.7
25.88186953,-80.14601507,00:57.5,10/21/21,10,0.792,41.64,-7.117706431,0.9,57.1,52.78,1.88,-1.29,36.4,0.01,3.34,3.35,92,24,510.0,16.2,-1.5,D,1389.6,0,225.827,1,1.01,154,43.22,-80.14446913,25.88334941,0,0,1,N,1.017082,68,68,11,117,117,50.20282,0,9999.99,3.36,3.487,2,9,29.3,0,29.29999924,46.4,1555.97431,10/21/21,10:37:10,26.69,68.1,46.4,1.19,7.91,-53.9,-3.5,-0.8,25965,92.4,5.7,12.9,,2021-10-21 00:57:30+00:00,26.69,46.4,5.7
25.88187352,-80.14601206,00:58.5,10/21/21,10,1.143,41.64,-7.117706431,0.9,59.2,54.85,0.54,3.67,36.3,0.01,3.38,3.38,92,24,510.0,16.2,-1.5,D,1389.6,0,225.298,1,0.98,154,43.25,-80.14446913,25.88334941,0,0,1,N,1.098169,60,60,11,111,111,50.77369,0,9999.99,3.39,3.517,2,9,29.3,0,29.29999924,33.97,1542.932,10/21/21,10:37:11,26.7,51.73,33.97,1.216,7.91,-53.8,-3.9,-6.3,39026,92.4,6.12,12.9,,2021-10-21 00:58:30+00:00,26.7,33.97,6.12
25.88187573,-80.14600632,00:59.5,10/21/21,10,1.133,41.64,-7.117706431,0.9,56.0,51.69,1.88,-2.68,36.3,0.0,3.35,3.35,92,24,509.9,16.2,-1.5,D,1400.5,0,224.726,1,1.0,154,43.18,-80.14446913,25.88334941,0,0,1,N,0.8444105,65,65,11,105,105,48.98269,0,9999.99,3.36,3.487,2,9,29.3,0,29.29999924,46.39,1555.96378,10/21/21,10:37:12,26.7,68.1,46.39,1.208,7.91,-53.8,-2.3,5.6,11527,92.5,5.71,12.8,,2021-10-21 00:59:30+00:00,26.7,46.39,5.71
25.88187846,-80.1460021,01:00.5,10/21/21,10,1.052,41.64,-7.117706431,0.9,56.5,52.19,0.53,-4.23,36.3,0.01,3.34,3.34,92,24,509.9,16.2,-1.5,D,1400.5,0,224.215,1,0.98,154,43.16,-80.14446913,25.88334941,0,0,1,N,0.7427434,60,60,11,111,111,48.26159,0,9999.99,3.34,3.467,2,9,29.3,0,29.29999924,46.4,1555.9743,10/21/21,10:37:13,26.7,68.1,46.4,1.153,7.91,-53.8,-4.1,69.6,128017,92.6,5.72,12.9,,2021-10-21 01:00:30+00:00,26.7,46.4,5.72
25.88188154,-80.145999,01:01.5,10/21/21,10,0.764,41.64,-7.117706431,0.9,55.4,51.1,0.27,1.48,36.3,0.0,3.38,3.39,92,24,509.9,16.2,-1.5,D,1400.5,0,223.753,1,0.96,154,43.16,-80.14446913,25.88334941,0,0,1,N,0.7465284,59,59,11,116,116,48.28846,0,9999.99,3.39,3.517,2,9,29.3,0,29.29999924,46.24,1555.80606,10/21/21,10:37:14,26.7,67.9,46.24,1.287,7.91,-53.8,-3.6,-3.7,28515,92.5,5.72,12.9,,2021-10-21 01:01:30+00:00,26.7,46.24,5.72
25.88188422,-80.14599461,01:02.5,10/21/21,10,1.039,41.64,-7.117706431,0.9,53.1,48.81,1.76,-8.2,36.3,0.0,3.38,3.38,92,24,509.9,16.2,-1.5,D,1400.5,0,223.236,1,0.94,154,43.13,-80.14446913,25.88334941,0,0,1,N,0.6249354,72,72,11,125,125,47.42389,0,9999.99,3.4,3.527,2,9,29.3,0,29.29999924,46.38,1555.95323,10/21/21,10:37:15,26.71,68.07,46.38,1.196,7.91,-53.7,-3.6,-13.3,2112,92.5,5.71,12.9,,2021-10-21 01:02:30+00:00,26.71,46.38,5.71
25.88188687,-80.14599092,01:03.6,10/21/21,10,1.148,41.64,-7.117706431,0.9,59.1,54.75,0.04,2.48,36.3,0.0,3.49,3.49,92,24,509.9,16.2,-1.5,D,1393.1,0,222.768,1,0.93,154,43.11,-80.14446913,25.88334941,0,0,1,N,0.5633946,59,59,11,105,105,46.98554,0,9999.99,3.5,3.627,2,9,29.3,0,29.29999924,38.22,1547.38684,10/21/21,10:37:16,26.71,57.44,38.22,1.08,7.9,-53.5,-2.4,34.8,127457,92.5,5.98,12.9,,2021-10-21 01:03:36+00:00,26.71,38.22,5.98
25.88189054,-80.14598908,01:04.5,10/21/21,10,0.933,41.64,-7.117706431,0.9,56.1,51.79,1.65,-0.42,36.3,0.0,3.41,3.41,92,24,509.9,16.2,-1.5,D,1393.1,0,222.345,1,0.92,154,43.15,-80.14446913,25.88334941,0,0,1,N,0.7064887,67,67,11,112,112,48.00393,0,9999.99,3.43,3.557,2,9,29.3,0,29.29999924,43.73,1553.16909,10/21/21,10:37:17,26.71,64.67,43.73,1.302,7.9,-53.6,-2.6,-3.0,962,92.4,5.79,12.9,,2021-10-21 01:04:30+00:00,26.71,43.73,5.79
25.88189345,-80.14598475,01:05.6,10/21/21,10,1.062,41.64,-7.117706431,0.9,54.5,50.2,1.67,-4.96,36.4,0.0,3.47,3.47,92,24,509.9,16.2,-1.5,D,1393.1,0,221.812,1,0.97,154,43.12,-80.14446913,25.88334941,0,0,1,N,0.6109448,65,65,11,105,105,47.32425,0,9999.99,3.48,3.607,2,9,29.3,0,29.29999924,46.17,1555.73229,10/21/21,10:37:18,26.71,67.81,46.17,1.172,7.91,-53.7,-2.0,-2.1,119687,92.5,5.72,12.9,,2021-10-21 01:05:36+00:00,26.71,46.17,5.72
25.88189665,-80.14598255,01:06.6,10/21/21,10,0.732,41.64,-7.117706431,0.9,61.8,57.41,-2.75,1.28,36.4,0.01,3.43,3.44,92,24,509.9,16.2,-1.5,D,1388.5,0,221.402,1,0.97,154,43.14,-80.14446913,25.88334941,0,0,1,N,0.6961772,43,43,11,93,93,47.93065,0,9999.99,3.42,3.547,2,9,29.3,0,29.29999924,46.39,1555.96376,10/21/21,10:37:19,26.71,68.09,46.39,1.217,7.9,-53.6,-2.9,42.5,65391,92.5,5.71,12.9,,2021-10-21 01:06:36+00:00,26.71,46.39,5.71
25.88189927,-80.14597963,01:07.6,10/21/21,10,0.832,41.64,-7.117706431,0.9,52.6,48.32,3.97,-5.98,36.4,0.02,3.35,3.37,92,24,509.9,16.2,-1.5,D,1388.5,0,220.99,1,0.92,154,43.14,-80.14446913,25.88334941,0,0,1,N,0.6706779,81,81,11,125,125,47.74929,0,9999.99,3.37,3.494717,2,9,29.3,0,29.29999924,46.22,1555.78669,10/21/21,10:37:20,26.69,67.87,46.22,1.471,7.9,-53.6,-2.9,31.1,64659,92.6,5.72,12.7,,2021-10-21 01:07:36+00:00,26.69,46.22,5.72
25.88190335,-80.14597758,01:08.6,10/21/21,10,1.077,41.64,-7.117706431,0.9,59.3,54.95,-1.1,-3.4,36.4,0.0,3.48,3.48,92,24,509.9,16.2,-1.5,D,1388.5,0,220.518,1,1.0,154,43.18,-80.14446913,25.88334941,0,0,1,N,0.8441492,46,46,11,100,100,48.98064,0,9999.99,3.46,3.587,2,9,29.3,0,29.29999924,46.38,1555.95473,10/21/21,10:37:21,26.7,68.08,46.38,1.135,7.9,-53.6,-2.9,9.2,117323,92.6,5.72,13.0,,2021-10-21 01:08:36+00:00,26.7,46.38,5.72
25.88190569,-80.1459745,01:09.6,10/21/21,10,0.747,41.64,-7.117706431,0.9,54.7,50.4,0.22,2.66,36.4,0.0,3.4,3.4,92,24,509.9,16.2,-1.5,D,1388.5,0,220.118,1,0.93,154,43.17,-80.14446913,25.88334941,0,0,1,N,0.784725,58,58,11,120,120,48.55937,0,9999.99,3.42,3.547,2,9,29.2,0,29.20000076,46.4,1555.77121,10/21/21,10:37:22,26.68,68.11,46.4,1.399,7.9,-53.6,-1.5,-4.0,-1780,92.5,5.71,13.0,,2021-10-21 01:09:36+00:00,26.68,46.4,5.71
25.88190904,-80.14597141,01:10.6,10/21/21,10,1.099,41.64,-7.117706431,0.9,55.9,51.59,1.59,-2.75,36.4,0.0,3.42,3.42,92,25,510.3,16.2,-1.5,D,1370.5,0,219.635,1,0.98,154,43.18,-80.14446913,25.88334941,0,0,1,N,0.812279,67,67,11,116,116,48.75483,0,9999.99,3.43,3.557,2,9,29.2,0,29.20000076,15.5,1523.40069,10/21/21,10:37:23,26.69,25.48,15.5,1.184,7.9,-53.5,10.5,-2.4,12349,92.5,6.79,12.8,,2021-10-21 01:10:36+00:00,26.69,15.5,6.79
25.88191177,-80.14596655,01:11.6,10/21/21,10,1.014,41.64,-7.117706431,0.9,57.8,53.47,-0.34,-5.64,36.4,0.01,3.36,3.38,92,25,510.3,16.2,-1.5,D,1370.5,0,219.081,1,0.98,154,43.14,-80.14446913,25.88334941,0,0,1,N,0.6745925,53,53,11,90,90,47.77708,0,9999.99,3.38,3.507,2,9,29.2,0,29.20000076,38.48,1547.45124,10/21/21,10:37:24,26.69,57.78,38.48,1.156,7.9,-53.4,-4.3,-2.3,21705,92.4,5.97,12.8,,2021-10-21 01:11:36+00:00,26.69,38.48,5.97
25.88191722,-80.14596393,01:12.6,10/21/21,10,0.953,41.64,-7.117706431,0.9,56.9,52.58,0.75,3.75,36.4,0.01,3.42,3.42,92,25,510.3,16.2,-1.5,D,1370.5,0,218.459,1,0.94,154,43.2,-80.14446913,25.88334941,0,0,1,N,0.8802181,66,66,11,120,120,49.23597,0,9999.99,3.44,3.567,2,9,29.2,0,29.20000076,45.29,1554.60464,10/21/21,10:37:25,26.7,66.68,45.29,1.354,7.9,-53.2,-4.0,6.1,14560,92.5,5.74,12.9,,2021-10-21 01:12:36+00:00,26.7,45.29,5.74
25.88191826,-80.14595941,01:13.6,10/21/21,10,1.064,41.64,-7.117706431,0.9,59.4,55.05,2.6,-6.43,36.4,0.0,3.33,3.34,92,25,510.3,16.2,-1.5,D,1363.4,0,218.066,1,0.95,154,43.13,-80.14446913,25.88334941,0,0,1,N,0.6388834,73,73,11,97,97,47.52298,0,9999.99,3.34,3.467,2,9,29.2,0,29.20000076,31.86,1540.50874,10/21/21,10:37:26,26.7,48.86,31.86,1.146,7.9,-53.2,-2.6,-4.7,51859,92.5,6.2,13.0,,2021-10-21 01:13:36+00:00,26.7,31.86,6.2
25.88192152,-80.14595669,01:14.6,10/21/21,10,0.872,41.64,-7.117706431,0.9,60.5,56.13,1.14,4.21,36.4,0.0,3.49,3.49,92,25,510.3,16.2,-1.5,D,1363.4,0,217.615,1,0.93,154,43.15,-80.14446913,25.88334941,0,0,1,N,0.6861045,60,60,11,92,92,47.85893,0,9999.99,3.49,3.617,2,9,29.2,0,29.20000076,46.37,1555.73998,10/21/21,10:37:27,26.7,68.07,46.37,1.149,7.9,-53.2,-2.8,62.9,212493,92.5,5.71,13.0,,2021-10-21 01:14:36+00:00,26.7,46.37,5.71
25.8819215,-80.14595099,01:15.6,10/21/21,10,1.185,41.64,-7.117706431,0.9,60.9,56.53,1.12,3.77,36.4,0.01,3.35,3.35,92,25,510.3,16.2,-1.5,D,1363.4,0,217.227,1,0.94,154,43.04,-80.14446913,25.88334941,0,0,1,N,0.2631518,64,64,11,80,80,44.84099,0,9999.99,3.36,3.483691,2,9,29.2,0,29.20000076,46.37,1555.74003,10/21/21,10:37:28,26.7,68.06,46.37,1.255,7.9,-53.1,-3.5,0.4,33430,92.4,5.71,12.7,,2021-10-21 01:15:36+00:00,26.7,46.37,5.71
25.88192358,-80.14594664,01:16.6,10/21/21,10,1.174,41.64,-7.117706431,0.9,54.3,50.01,1.42,-6.0,36.4,0.01,3.4,3.41,92,25,510.3,16.2,-1.5,D,1363.4,0,216.761,1,0.92,154,42.99,-80.14446913,25.88334941,0,0,1,N,0.097,66,66,11,102,102,43.65176,0,9999.99,3.42,3.547,2,9,29.2,0,29.20000076,46.34,1555.70863,10/21/21,10:37:29,26.7,68.02,46.34,1.179,7.9,-53.2,-1.9,59.9,70043,92.3,5.7,12.9,,2021-10-21 01:16:36+00:00,26.7,46.34,5.7
25.88192517,-80.14594245,01:17.6,10/21/21,10,0.898,41.64,-7.117706431,0.9,60.4,56.04,0.15,-1.97,36.4,0.0,3.42,3.42,92,24,510.2,16.2,-1.5,D,1396.6,0,216.346,1,0.92,154,42.94,-80.14446913,25.88334941,0,0,1,N,0.0789,58,58,11,72,72,42.39182,0,9999.99,3.43,3.557,2,9,29.2,0,29.20000076,46.25,1555.61368,10/21/21,10:37:30,26.71,67.91,46.25,1.128,7.89,-53.0,-3.9,2.1,67996,92.3,5.7,12.9,,2021-10-21 01:17:36+00:00,26.71,46.25,5.7
25.88192888,-80.1459385,01:18.7,10/21/21,10,1.173,41.64,-7.117706431,0.9,51.4,47.12,-1.17,3.35,36.4,0.0,3.44,3.44,92,24,510.2,16.2,-1.5,D,1396.6,0,215.775,1,0.92,154,42.94,-80.14446913,25.88334941,0,0,1,N,0.1006465,50,50,11,107,107,42.23613,0,9999.99,3.46,3.587,2,9,29.2,0,29.20000076,12.59,1520.36512,10/21/21,10:37:32,26.71,21.07,12.59,1.202,7.89,-53.0,-6.3,-4.5,126426,92.2,6.88,12.7,,2021-10-21 01:18:42+00:00,26.71,12.59,6.88
25.88193192,-80.14593459,01:19.7,10/21/21,10,1.021,41.64,-7.117706431,0.9,54.8,50.5,2.96,-8.6,36.4,0.01,3.35,3.36,92,24,510.2,16.2,-1.5,D,1387.4,0,215.261,1,0.96,154,42.93,-80.14446913,25.88334941,0,0,1,N,0.1472866,75,75,11,93,93,41.90211,0,9999.99,3.34,3.467,2,9,29.2,0,29.20000076,12.59,1520.36512,10/21/21,10:37:32,26.71,21.07,12.59,1.202,7.89,-53.0,-6.3,-4.5,126426,92.2,6.88,12.7,,2021-10-21 01:19:42+00:00,26.71,12.59,6.88
25.88193423,-80.14593076,01:20.7,10/21/21,10,0.984,41.64,-7.117706431,0.9,48.4,44.13,-1.05,2.51,36.5,0.0,3.47,3.47,92,24,510.2,16.2,-1.5,D,1387.4,0,214.812,1,0.93,154,42.9,-80.14446913,25.88334941,0,0,1,N,0.2624332,57,57,11,112,112,41.07795,0,9999.99,3.48,3.607,2,9,29.2,0,29.20000076,31.31,1539.93254,10/21/21,10:37:34,26.7,48.1,31.31,1.136,7.9,-53.1,-3.9,-9.9,127570,92.3,6.2,12.8,,2021-10-21 01:20:42+00:00,26.7,31.31,6.2
25.88193577,-80.14592773,01:21.7,10/21/21,10,0.802,41.64,-7.117706431,0.9,55.9,51.59,2.37,2.15,36.4,0.01,3.3,3.31,92,24,510.2,16.2,-1.5,D,1387.4,0,214.48,1,0.95,154,42.87,-80.14446913,25.88334941,0,0,1,N,0.3598684,71,71,11,82,82,40.38116,0,9999.99,3.29,3.417,2,9,29.2,0,29.20000076,31.31,1539.93254,10/21/21,10:37:34,26.7,48.1,31.31,1.136,7.9,-53.1,-3.9,-9.9,127570,92.3,6.2,12.8,,2021-10-21 01:21:42+00:00,26.7,31.31,6.2
25.88194973,-80.1459215,01:24.7,10/21/21,10,1.156,41.64,-7.117706431,0.9,49.6,45.33,2.47,1.69,36.3,0.0,3.38,3.39,92,25,510.2,16.2,-1.5,D,1371.2,0,212.92,1,0.95,154,43.03,-80.14446913,25.88334941,0,0,1,N,0.2344025,69,69,11,136,136,44.6351,0,9999.99,3.39,3.517,2,9,29.2,0,29.20000076,43.85,1553.09068,10/21/21,10:37:37,26.69,64.82,43.85,1.113,7.89,-53.0,-3.1,-4.0,12838,92.4,5.79,12.9,,2021-10-21 01:24:42+00:00,26.69,43.85,5.79
25.88195337,-80.14591977,01:25.7,10/21/21,10,0.744,41.64,-7.117706431,0.9,50.3,46.02,-0.28,6.9,36.4,0.01,3.41,3.42,92,25,510.2,16.2,-1.5,D,1371.2,0,212.505,1,0.92,154,43.07,-80.14446913,25.88334941,0,0,1,N,0.3786595,55,55,11,126,126,45.66681,0,9999.99,3.42,3.547,2,9,29.2,0,29.20000076,45.88,1555.22488,10/21/21,10:37:39,26.7,67.43,45.88,1.174,7.89,-52.9,-2.5,-3.1,-1148,92.3,5.72,12.9,,2021-10-21 01:25:42+00:00,26.7,45.88,5.72
25.88195715,-80.14591675,01:26.7,10/21/21,10,1.033,41.64,-7.117706431,0.9,45.9,41.62,0.65,-5.24,36.3,0.01,3.38,3.38,92,25,510.1,16.2,-1.5,D,1360.6,0,211.992,1,0.96,154,43.09,-80.14446913,25.88334941,0,0,1,N,0.4454323,61,61,11,145,145,46.14377,0,9999.99,3.39,3.517,2,9,29.2,0,29.20000076,45.88,1555.22488,10/21/21,10:37:39,26.7,67.43,45.88,1.174,7.89,-52.9,-2.5,-3.1,-1148,92.3,5.72,12.9,,2021-10-21 01:26:42+00:00,26.7,45.88,5.72
25.88196317,-80.14591583,01:27.8,10/21/21,10,1.04,41.64,-7.117706431,0.9,48.9,44.63,1.62,1.78,36.3,0.0,3.44,3.44,92,25,510.1,16.2,-1.5,D,1360.6,0,211.463,1,0.92,154,43.18,-80.14446913,25.88334941,0,0,1,N,0.793811,67,67,11,143,143,48.62363,0,9999.99,3.44,3.567,2,9,29.2,0,29.20000076,46.35,1555.7188,10/21/21,10:37:41,26.7,68.04,46.35,1.228,7.89,-52.9,-3.0,0.6,-2495,92.3,5.7,12.9,,2021-10-21 01:27:48+00:00,26.7,46.35,5.7
25.88196619,-80.14591302,01:28.8,10/21/21,10,1.04,41.64,-7.117706431,0.9,49.2,44.93,0.67,-3.0,36.3,0.0,3.41,3.42,92,25,510.1,16.2,-1.5,D,1360.6,0,211.003,1,0.96,154,43.2,-80.14446913,25.88334941,0,0,1,N,0.8638616,61,61,11,144,144,49.12003,0,9999.99,3.44,3.567,2,9,29.2,0,29.20000076,10.46,1518.1446,10/21/21,10:37:42,26.7,17.77,10.46,1.163,7.89,-52.9,-8.9,-7.3,91524,92.3,6.97,12.9,,2021-10-21 01:28:48+00:00,26.7,10.46,6.97
25.88197028,-80.14591063,01:29.8,10/21/21,10,0.839,41.64,-7.117706431,0.9,49.5,45.23,0.82,1.56,36.3,0.0,3.5,3.5,92,25,510.1,16.2,-1.5,D,1370.2,0,210.508,1,0.94,154,43.24,-80.14446913,25.88334941,0,0,1,N,0.9893035,64,64,11,161,161,50.00655,0,9999.99,3.5,3.627,2,9,29.2,0,29.20000076,46.35,1555.71878,10/21/21,10:37:43,26.69,68.04,46.35,1.157,7.89,-53.0,-2.8,-1.3,3627,92.3,5.7,12.9,,2021-10-21 01:29:48+00:00,26.69,46.35,5.7
25.88197427,-80.14590613,01:30.8,10/21/21,10,1.112,41.64,-7.117706431,0.9,55.1,50.8,1.36,-2.92,36.3,0.0,3.44,3.44,92,25,510.1,16.2,-1.5,D,1370.2,0,209.877,1,0.96,154,43.23,-80.14446913,25.88334941,0,0,1,N,0.9753091,65,65,11,123,123,49.90781,0,9999.99,3.45,3.577,2,9,29.2,0,29.20000076,46.35,1555.71878,10/21/21,10:37:43,26.69,68.04,46.35,1.157,7.89,-53.0,-2.8,-1.3,3627,92.3,5.7,12.9,,2021-10-21 01:30:48+00:00,26.69,46.35,5.7
25.88197606,-80.14590275,01:31.8,10/21/21,10,0.848,41.64,-7.117706431,0.9,50.9,46.62,0.5,6.02,36.3,0.0,3.42,3.42,92,25,510.1,16.2,-1.5,D,1370.2,0,209.499,1,0.92,154,43.2,-80.14446913,25.88334941,0,0,1,N,0.8574315,60,60,11,137,137,49.07452,0,9999.99,3.44,3.567,2,9,29.2,0,29.20000076,45.74,1555.0774,10/21/21,10:37:45,26.71,67.26,45.74,1.085,7.89,-52.9,-1.9,2.5,125699,92.3,5.72,12.9,,2021-10-21 01:31:48+00:00,26.71,45.74,5.72
25.88197983,-80.14589833,01:32.8,10/21/21,10,0.87,41.64,-7.117706431,0.9,56.7,52.38,2.34,-5.13,36.3,0.0,3.42,3.42,92,25,510.1,16.2,-1.5,D,1370.2,0,208.888,1,0.99,154,43.17,-80.14446913,25.88334941,0,0,1,N,0.7335807,71,71,11,110,110,48.19611,0,9999.99,3.41,3.537,2,9,29.2,0,29.20000076,45.74,1555.0774,10/21/21,10:37:45,26.71,67.26,45.74,1.085,7.89,-52.9,-1.9,2.5,125699,92.3,5.72,12.9,,2021-10-21 01:32:48+00:00,26.71,45.74,5.72
25.88198308,-80.14589498,01:33.8,10/21/21,10,0.87,41.64,-7.117706431,0.9,57.0,52.68,0.67,5.49,36.3,0.0,3.47,3.48,92,25,510.1,16.2,-1.5,D,1359.6,0,208.399,1,0.94,154,43.19,-80.14446913,25.88334941,0,0,1,N,0.8279942,57,57,11,105,105,48.86597,0,9999.99,3.49,3.617,2,9,29.2,0,29.20000076,46.34,1555.70837,10/21/21,10:37:46,26.69,68.03,46.34,1.287,7.89,-53.0,-3.9,-2.0,93355,92.3,5.7,12.9,,2021-10-21 01:33:48+00:00,26.69,46.34,5.7
25.88198333,-80.14588767,01:34.8,10/21/21,10,1.136,41.64,-7.117706431,0.9,55.5,51.2,1.33,-4.34,36.3,0.01,3.39,3.4,92,25,510.1,16.2,-1.5,D,1359.6,0,207.918,1,0.94,154,43.15,-80.14446913,25.88334941,0,0,1,N,0.6550388,65,65,11,113,113,47.63777,0,9999.99,3.41,3.537,2,9,29.2,0,29.20000076,46.29,1555.65592,10/21/21,10:37:48,26.71,67.96,46.29,1.144,7.89,-52.9,-4.7,-1.5,56408,92.3,5.7,12.9,,2021-10-21 01:34:48+00:00,26.71,46.29,5.7
25.88198633,-80.145885,01:35.8,10/21/21,10,0.807,41.64,-7.117706431,0.9,51.6,47.32,0.6,-7.5,36.3,0.01,3.44,3.44,92,25,510.1,16.2,-1.5,D,1359.6,0,207.373,1,0.98,154,43.05,-80.14446913,25.88334941,0,0,1,N,0.2904721,61,61,11,118,118,45.03621,0,9999.99,3.45,3.577,2,9,29.2,0,29.20000076,46.29,1555.65592,10/21/21,10:37:48,26.71,67.96,46.29,1.144,7.89,-52.9,-4.7,-1.5,56408,92.3,5.7,12.9,,2021-10-21 01:35:48+00:00,26.71,46.29,5.7
25.8819915,-80.14588283,01:36.8,10/21/21,10,1.08,41.64,-7.117706431,0.9,59.2,54.85,1.29,2.8,36.3,0.0,3.46,3.46,92,24,510.0,16.2,-1.5,D,1414.9,0,206.969,1,0.91,154,43.07,-80.14446913,25.88334941,0,0,1,N,0.363808,65,65,11,105,105,45.56053,0,9999.99,3.46,3.587,2,9,29.2,0,29.20000076,44.98,1554.27828,10/21/21,10:37:49,26.71,66.28,44.98,1.168,7.89,-52.9,-3.1,3.6,31822,92.4,5.75,12.8,,2021-10-21 01:36:48+00:00,26.71,44.98,5.75
25.88199401,-80.14587907,01:37.8,10/21/21,10,1.08,41.64,-7.117706431,0.9,59.5,55.15,-1.51,7.19,36.3,0.0,3.49,3.49,92,24,510.0,16.2,-1.5,D,1414.9,0,206.423,1,0.94,154,43.1,-80.14446913,25.88334941,0,0,1,N,0.4980233,48,48,11,92,92,46.51902,0,9999.99,3.49,3.617,2,9,29.2,0,29.20000076,46.32,1555.68701,10/21/21,10:37:51,26.72,68.0,46.32,1.174,7.89,-52.8,-9.0,-8.4,144396,92.4,5.71,12.8,,2021-10-21 01:37:48+00:00,26.72,46.32,5.71
25.88200367,-80.14586483,01:40.8,10/21/21,11,0.609,41.64,-7.117706431,0.9,67.7,63.18,-1.2,2.18,36.3,0.0,3.45,3.45,92,23,510.0,16.2,-1.4,D,1489.2,0,204.512,1,1.11,153,42.97,-80.14446913,25.88334941,0,0,1,N,0.0216,50,50,11,52,52,43.11155,0,9999.99,3.45,3.577,2,9,29.2,0,29.10000038,46.32,1555.48359,10/21/21,10:37:53,26.71,68.0,46.32,1.17,7.89,-52.8,-2.9,-7.5,18333,92.5,5.71,12.9,,2021-10-21 01:40:48+00:00,26.71,46.32,5.71
25.8820065,-80.14585983,01:41.8,10/21/21,11,1.277,41.64,-7.117706431,0.9,72.6,67.93,-1.94,-1.92,36.3,0.0,3.43,3.43,92,23,510.0,16.2,-1.4,D,1489.2,0,204.139,1,1.1,153,42.94,-80.14446913,25.88334941,0,0,1,N,0.0684,45,45,11,25,25,42.46655,0,9999.99,3.43,3.557,2,9,29.1,0,29.10000038,32.72,1541.19658,10/21/21,10:37:55,26.71,50.04,32.72,1.111,7.89,-52.6,-3.1,-5.1,217656,92.3,6.15,12.9,,2021-10-21 01:41:48+00:00,26.71,32.72,6.15
25.88201318,-80.14584782,01:45.8,10/21/21,11,0.671,41.64,-7.117706431,0.9,67.8,63.28,-1.55,-0.08,36.2,0.0,3.53,3.53,92,23,509.9,16.2,-1.4,D,1456.5,0,202.732,1,0.93,153,42.87,-80.14446913,25.88334941,0,0,1,N,0.3373378,48,48,11,36,36,40.54207,0,9999.99,3.47,3.597,2,9,29.1,0,29.10000038,46.31,1555.47305,10/21/21,10:37:59,26.7,67.99,46.31,1.079,7.89,-52.6,-2.4,2.8,105528,92.3,5.7,12.9,,2021-10-21 01:45:48+00:00,26.7,46.31,5.7
25.88201391,-80.14584529,01:46.8,10/21/21,11,0.886,41.64,-7.117706431,0.9,67.9,63.38,-4.8,-1.33,36.3,0.0,3.58,3.58,92,23,509.9,16.2,-1.4,D,1456.5,0,202.501,1,0.89,153,42.83,-80.14446913,25.88334941,0,0,1,N,0.4640658,43,43,11,27,27,39.63669,0,9999.99,3.55,3.677,2,9,29.1,0,29.10000038,46.14,1555.29442,10/21/21,10:38:00,26.71,67.78,46.14,1.163,7.89,-52.5,-4.8,1.0,194140,92.3,5.7,12.7,,2021-10-21 01:46:48+00:00,26.71,46.14,5.7
25.88201611,-80.14584283,01:47.8,10/21/21,11,0.598,41.64,-7.117706431,0.9,73.1,68.42,-0.46,2.35,36.2,0.0,3.6,3.6,92,22,509.9,16.2,-1.3,D,1550.1,0,202.154,1,0.8,153,42.83,-80.14446913,25.88334941,0,0,1,N,0.4764634,54,54,11,12,12,39.54825,0,9999.99,3.54,3.667,2,9,29.1,0,29.10000038,46.32,1555.48382,10/21/21,10:38:01,26.7,68.01,46.32,1.159,7.88,-52.4,-3.7,-16.0,151125,92.3,5.7,12.9,,2021-10-21 01:47:48+00:00,26.7,46.32,5.7
25.88203233,-80.1458355,01:53.8,10/21/21,11,0.512,41.64,-7.117706431,0.9,98.1,92.14,-11.7,2.15,36.1,0.0,3.65,3.65,92,22,509.9,16.2,-1.3,D,1567.1,0,200.235,1,1.0,154,42.89,-80.14446913,25.88334941,0,0,1,N,0.2149864,43,43,11,5,5,41.41721,0,9999.99,999.99,999.99,0,0,29.1,0,29.10000038,3.31,1510.46428,10/21/21,10:38:07,26.28,6.11,3.31,0.963,7.88,-52.1,-7.7,-1.1,198503,92.3,7.31,12.7,,2021-10-21 01:53:48+00:00,26.28,3.31,7.31
25.88203242,-80.14583059,01:54.8,10/21/21,11,0.512,41.64,-7.117706431,0.9,81.2,76.19,-11.3,-6.27,36.1,0.0,3.65,3.65,92,21,509.8,16.2,-1.3,D,1575.2,0,199.992,1,1.0,154,42.92,-80.14446913,25.88334941,0,0,1,N,0.1167248,43,43,11,5,5,42.12065,0,9999.99,999.99,999.99,0,0,29.1,0,29.10000038,3.31,1510.46428,10/21/21,10:38:07,26.28,6.11,3.31,0.963,7.88,-52.1,-7.7,-1.1,198503,92.3,7.31,12.7,,2021-10-21 01:54:48+00:00,26.28,3.31,7.31
25.88203771,-80.14583287,01:57.8,10/21/21,11,0.399,41.64,-7.117706431,0.9,108.6,101.9,-6.13,1.38,36.1,0.01,3.65,3.66,92,21,509.8,16.2,-1.3,D,1575.2,0,199.717,1,1.0,160,43.09,-80.14446913,25.88334941,0,0,1,N,0.4699443,43,43,11,5,5,46.3185,0,9999.99,999.99,999.99,0,0,29.1,0,29.10000038,4.12,1511.30757,10/21/21,10:38:10,25.97,7.481,4.12,0.989,7.88,-51.8,-8.5,-7.7,171091,92.6,7.34,12.9,,2021-10-21 01:57:48+00:00,25.97,4.12,7.34
25.88204351,-80.14583557,02:00.8,10/21/21,11,0.273,41.64,-7.117706431,0.9,113.9,106.81,0.3,4.99,36.1,0.03,3.65,3.68,92,22,509.8,16.2,-1.3,D,1565.8,0,199.432,1,1.0,160,43.27,-80.14446913,25.88334941,0,0,1,N,1.112303,45,45,11,5,5,50.87244,0,9999.99,999.99,999.99,0,0,29.2,0,29.20000076,2.76,1510.13313,10/21/21,10:38:13,25.66,5.141,2.76,0.986,7.87,-51.3,-7.3,-6.1,158751,94.4,7.59,12.7,,2021-10-21 02:00:48+00:00,25.66,2.76,7.59
